[{"airport1":{"country":"United States","iata":"ABE","icao":"KABE","lat":40.652302,"lon":-75.440399,"name":"Allentown Lehigh Valley International Airport"},"airport2":{"country":"United States","iata":"ATL","icao":"KATL","lat":33.636719,"lon":-84.428001,"name":"Atlanta Hartsfield-Jackson International Airport"}},{"airport1":{"country":"United States","iata":"ABQ","icao":"KABQ","lat":35.040218,"lon":-106.609001,"name":"Albuquerque International Airport"},"airport2":{"country":"United States","iata":"ATL","icao":"KATL","lat":33.636719,"lon":-84.428001,"name":"Atlanta Hartsfield-Jackson International Airport"}},{"airport1":{"country":"United States","iata":"ABQ","icao":"KABQ","lat":35.040218,"lon":-106.609001,"name":"Albuquerque International Airport"},"airport2":{"country":"United States","iata":"LAX","icao":"KLAX","lat":33.94252,"lon":-118.406998,"name":"Los Angeles International Airport"}},{"airport1":{"country":"United States","iata":"ABQ","icao":"KABQ","lat":35.040218,"lon":-106.609001,"name":"Albuquerque International Airport"},"airport2":{"country":"United States","iata":"MSP","icao":"KMSP","lat":44.88195,"lon":-93.221703,"name":"Minneapolis Saint Paul International Airport"}},{"airport1":{"country":"United States","iata":"ABQ","icao":"KABQ","lat":35.040218,"lon":-106.609001,"name":"Albuquerque International Airport"},"airport2":{"country":"United States","iata":"SLC","icao":"KSLC","lat":40.78838,"lon":-111.976997,"name":"Salt Lake City International Airport"}},{"airport1":{"country":"United States","iata":"ABR","icao":"KABR","lat":45.439999,"lon":-98.419998,"name":"Aberdeen Regional Airport"},"airport2":{"country":"United States","iata":"MSP","icao":"KMSP","lat":44.88195,"lon":-93.221703,"name":"Minneapolis Saint Paul International Airport"}},{"airport1":{"country":"United States","iata":"ABY","icao":"KABY","lat":31.535526,"lon":-84.193428,"name":"Albany Southwest Georgia Regional Airport"},"airport2":{"country":"United States","iata":"ATL","icao":"KATL","lat":33.636719,"lon":-84.428001,"name":"Atlanta Hartsfield-Jackson International Airport"}},{"airport1":{"country":"Ghana","iata":"ACC","icao":"DGAA","lat":5.605186,"lon":-0.16678,"name":"Accra Kotoka International Airport"},"airport2":{"country":"United States","iata":"JFK","icao":"KJFK","lat":40.639751,"lon":-73.7789,"name":"New York John F. Kennedy International Airport"}},{"airport1":{"country":"United States","iata":"AEX","icao":"KAEX","lat":31.32737,"lon":-92.5485,"name":"Alexandria International Airport"},"airport2":{"country":"United States","iata":"ATL","icao":"KATL","lat":33.636719,"lon":-84.428001,"name":"Atlanta Hartsfield-Jackson International Airport"}},{"airport1":{"country":"United States","iata":"AGS","icao":"KAGS","lat":33.369942,"lon":-81.9645,"name":"Augusta Regional Airport"},"airport2":{"country":"United States","iata":"ATL","icao":"KATL","lat":33.636719,"lon":-84.428001,"name":"Atlanta Hartsfield-Jackson International Airport"}},{"airport1":{"country":"New Zealand","iata":"AKL","icao":"NZAA","lat":-37.010914,"lon":174.790176,"name":"Auckland Airport"},"airport2":{"country":"United States","iata":"LAX","icao":"KLAX","lat":33.94252,"lon":-118.406998,"name":"Los Angeles International Airport"}},{"airport1":{"country":"United States","iata":"ALB","icao":"KALB","lat":42.749111,"lon":-73.801903,"name":"Albany International Airport"},"airport2":{"country":"United States","iata":"ATL","icao":"KATL","lat":33.636719,"lon":-84.428001,"name":"Atlanta Hartsfield-Jackson International Airport"}},{"airport1":{"country":"United States","iata":"ALB","icao":"KALB","lat":42.749111,"lon":-73.801903,"name":"Albany International Airport"},"airport2":{"country":"United States","iata":"DTW","icao":"KDTW","lat":42.21244,"lon":-83.353302,"name":"Detroit Metropolitan Wayne County Airport"}},{"airport1":{"country":"United States","iata":"ALB","icao":"KALB","lat":42.749111,"lon":-73.801903,"name":"Albany International Airport"},"airport2":{"country":"United States","iata":"LGA","icao":"KLGA","lat":40.777248,"lon":-73.872597,"name":"New York LaGuardia Airport"}},{"airport1":{"country":"Netherlands","iata":"AMS","icao":"EHAM","lat":52.308609,"lon":4.763889,"name":"Amsterdam Schiphol Airport"},"airport2":{"country":"United States","iata":"ATL","icao":"KATL","lat":33.636719,"lon":-84.428001,"name":"Atlanta Hartsfield-Jackson International Airport"}},{"airport1":{"country":"Netherlands","iata":"AMS","icao":"EHAM","lat":52.308609,"lon":4.763889,"name":"Amsterdam Schiphol Airport"},"airport2":{"country":"United States","iata":"BOS","icao":"KBOS","lat":42.362968,"lon":-71.006401,"name":"Boston Logan International Airport"}},{"airport1":{"country":"Netherlands","iata":"AMS","icao":"EHAM","lat":52.308609,"lon":4.763889,"name":"Amsterdam Schiphol Airport"},"airport2":{"country":"United States","iata":"DTW","icao":"KDTW","lat":42.21244,"lon":-83.353302,"name":"Detroit Metropolitan Wayne County Airport"}},{"airport1":{"country":"Netherlands","iata":"AMS","icao":"EHAM","lat":52.308609,"lon":4.763889,"name":"Amsterdam Schiphol Airport"},"airport2":{"country":"United States","iata":"JFK","icao":"KJFK","lat":40.639751,"lon":-73.7789,"name":"New York John F. Kennedy International Airport"}},{"airport1":{"country":"Netherlands","iata":"AMS","icao":"EHAM","lat":52.308609,"lon":4.763889,"name":"Amsterdam Schiphol Airport"},"airport2":{"country":"United States","iata":"MSP","icao":"KMSP","lat":44.88195,"lon":-93.221703,"name":"Minneapolis Saint Paul International Airport"}},{"airport1":{"country":"Netherlands","iata":"AMS","icao":"EHAM","lat":52.308609,"lon":4.763889,"name":"Amsterdam Schiphol Airport"},"airport2":{"country":"United States","iata":"SEA","icao":"KSEA","lat":47.4482,"lon":-122.311203,"name":"Seattle Tacoma International Airport"}},{"airport1":{"country":"Netherlands","iata":"AMS","icao":"EHAM","lat":52.308609,"lon":4.763889,"name":"Amsterdam Schiphol Airport"},"airport2":{"country":"United States","iata":"SLC","icao":"KSLC","lat":40.78838,"lon":-111.976997,"name":"Salt Lake City International Airport"}},{"airport1":{"country":"Netherlands","iata":"AMS","icao":"EHAM","lat":52.308609,"lon":4.763889,"name":"Amsterdam Schiphol Airport"},"airport2":{"country":"United States","iata":"TPA","icao":"KTPA","lat":27.97547,"lon":-82.533203,"name":"Tampa International Airport"}},{"airport1":{"country":"United States","iata":"ANC","icao":"PANC","lat":61.174358,"lon":-149.996002,"name":"Anchorage Ted Stevens International Airport"},"airport2":{"country":"United States","iata":"MSP","icao":"KMSP","lat":44.88195,"lon":-93.221703,"name":"Minneapolis Saint Paul International Airport"}},{"airport1":{"country":"United States","iata":"ANC","icao":"PANC","lat":61.174358,"lon":-149.996002,"name":"Anchorage Ted Stevens International Airport"},"airport2":{"country":"United States","iata":"SEA","icao":"KSEA","lat":47.4482,"lon":-122.311203,"name":"Seattle Tacoma International Airport"}},{"airport1":{"country":"Antigua And Barbuda","iata":"ANU","icao":"TAPA","lat":17.13674,"lon":-61.792599,"name":"Antigua V. C. Bird International Airport"},"airport2":{"country":"United States","iata":"ATL","icao":"KATL","lat":33.636719,"lon":-84.428001,"name":"Atlanta Hartsfield-Jackson International Airport"}},{"airport1":{"country":"United States","iata":"APN","icao":"KAPN","lat":45.081669,"lon":-83.555832,"name":"Alpena County Regional Airport"},"airport2":{"country":"United States","iata":"DTW","icao":"KDTW","lat":42.21244,"lon":-83.353302,"name":"Detroit Metropolitan Wayne County Airport"}},{"airport1":{"country":"Sweden","iata":"ARN","icao":"ESSA","lat":59.653545,"lon":17.939816,"name":"Stockholm Arlanda Airport"},"airport2":{"country":"United States","iata":"JFK","icao":"KJFK","lat":40.639751,"lon":-73.7789,"name":"New York John F. Kennedy International Airport"}},{"airport1":{"country":"United States","iata":"ASE","icao":"KASE","lat":39.22208,"lon":-106.86834,"name":"Aspen Pitkin County Airport"},"airport2":{"country":"United States","iata":"ATL","icao":"KATL","lat":33.636719,"lon":-84.428001,"name":"Atlanta Hartsfield-Jackson International Airport"}},{"airport1":{"country":"United States","iata":"ASE","icao":"KASE","lat":39.22208,"lon":-106.86834,"name":"Aspen Pitkin County Airport"},"airport2":{"country":"United States","iata":"LAX","icao":"KLAX","lat":33.94252,"lon":-118.406998,"name":"Los Angeles International Airport"}},{"airport1":{"country":"Greece","iata":"ATH","icao":"LGAV","lat":37.936352,"lon":23.94446,"name":"Athens Eleftherios Venizelos"},"airport2":{"country":"United States","iata":"ATL","icao":"KATL","lat":33.636719,"lon":-84.428001,"name":"Atlanta Hartsfield-Jackson International Airport"}},{"airport1":{"country":"Greece","iata":"ATH","icao":"LGAV","lat":37.936352,"lon":23.94446,"name":"Athens Eleftherios Venizelos"},"airport2":{"country":"United States","iata":"BOS","icao":"KBOS","lat":42.362968,"lon":-71.006401,"name":"Boston Logan International Airport"}},{"airport1":{"country":"Greece","iata":"ATH","icao":"LGAV","lat":37.936352,"lon":23.94446,"name":"Athens Eleftherios Venizelos"},"airport2":{"country":"United States","iata":"JFK","icao":"KJFK","lat":40.639751,"lon":-73.7789,"name":"New York John F. Kennedy International Airport"}},{"airport1":{"country":"United States","iata":"ATL","icao":"KATL","lat":33.636719,"lon":-84.428001,"name":"Atlanta Hartsfield-Jackson International Airport"},"airport2":{"country":"United States","iata":"ABE","icao":"KABE","lat":40.652302,"lon":-75.440399,"name":"Allentown Lehigh Valley International Airport"}},{"airport1":{"country":"United States","iata":"ATL","icao":"KATL","lat":33.636719,"lon":-84.428001,"name":"Atlanta Hartsfield-Jackson International Airport"},"airport2":{"country":"United States","iata":"ABQ","icao":"KABQ","lat":35.040218,"lon":-106.609001,"name":"Albuquerque International Airport"}},{"airport1":{"country":"United States","iata":"ATL","icao":"KATL","lat":33.636719,"lon":-84.428001,"name":"Atlanta Hartsfield-Jackson International Airport"},"airport2":{"country":"United States","iata":"ABY","icao":"KABY","lat":31.535526,"lon":-84.193428,"name":"Albany Southwest Georgia Regional Airport"}},{"airport1":{"country":"United States","iata":"ATL","icao":"KATL","lat":33.636719,"lon":-84.428001,"name":"Atlanta Hartsfield-Jackson International Airport"},"airport2":{"country":"United States","iata":"AEX","icao":"KAEX","lat":31.32737,"lon":-92.5485,"name":"Alexandria International Airport"}},{"airport1":{"country":"United States","iata":"ATL","icao":"KATL","lat":33.636719,"lon":-84.428001,"name":"Atlanta Hartsfield-Jackson International Airport"},"airport2":{"country":"United States","iata":"AGS","icao":"KAGS","lat":33.369942,"lon":-81.9645,"name":"Augusta Regional Airport"}},{"airport1":{"country":"United States","iata":"ATL","icao":"KATL","lat":33.636719,"lon":-84.428001,"name":"Atlanta Hartsfield-Jackson International Airport"},"airport2":{"country":"United States","iata":"ALB","icao":"KALB","lat":42.749111,"lon":-73.801903,"name":"Albany International Airport"}},{"airport1":{"country":"United States","iata":"ATL","icao":"KATL","lat":33.636719,"lon":-84.428001,"name":"Atlanta Hartsfield-Jackson International Airport"},"airport2":{"country":"Netherlands","iata":"AMS","icao":"EHAM","lat":52.308609,"lon":4.763889,"name":"Amsterdam Schiphol Airport"}},{"airport1":{"country":"United States","iata":"ATL","icao":"KATL","lat":33.636719,"lon":-84.428001,"name":"Atlanta Hartsfield-Jackson International Airport"},"airport2":{"country":"Antigua And Barbuda","iata":"ANU","icao":"TAPA","lat":17.13674,"lon":-61.792599,"name":"Antigua V. C. Bird International Airport"}},{"airport1":{"country":"United States","iata":"ATL","icao":"KATL","lat":33.636719,"lon":-84.428001,"name":"Atlanta Hartsfield-Jackson International Airport"},"airport2":{"country":"United States","iata":"ASE","icao":"KASE","lat":39.22208,"lon":-106.86834,"name":"Aspen Pitkin County Airport"}},{"airport1":{"country":"United States","iata":"ATL","icao":"KATL","lat":33.636719,"lon":-84.428001,"name":"Atlanta Hartsfield-Jackson International Airport"},"airport2":{"country":"Greece","iata":"ATH","icao":"LGAV","lat":37.936352,"lon":23.94446,"name":"Athens Eleftherios Venizelos"}},{"airport1":{"country":"United States","iata":"ATL","icao":"KATL","lat":33.636719,"lon":-84.428001,"name":"Atlanta Hartsfield-Jackson International Airport"},"airport2":{"country":"United States","iata":"ATW","icao":"KATW","lat":44.258091,"lon":-88.518997,"name":"Appleton International Airport"}},{"airport1":{"country":"United States","iata":"ATL","icao":"KATL","lat":33.636719,"lon":-84.428001,"name":"Atlanta Hartsfield-Jackson International Airport"},"airport2":{"country":"Aruba","iata":"AUA","icao":"TNCA","lat":12.50138,"lon":-70.015198,"name":"Oranjestad Queen Beatrix International Airport"}},{"airport1":{"country":"United States","iata":"ATL","icao":"KATL","lat":33.636719,"lon":-84.428001,"name":"Atlanta Hartsfield-Jackson International Airport"},"airport2":{"country":"United States","iata":"AUS","icao":"KAUS","lat":30.194521,"lon":-97.6698,"name":"Austin Bergstrom International Airport"}},{"airport1":{"country":"United States","iata":"ATL","icao":"KATL","lat":33.636719,"lon":-84.428001,"name":"Atlanta Hartsfield-Jackson International Airport"},"airport2":{"country":"United States","iata":"AVL","icao":"KAVL","lat":35.436192,"lon":-82.541801,"name":"Asheville Regional Airport"}},{"airport1":{"country":"United States","iata":"ATL","icao":"KATL","lat":33.636719,"lon":-84.428001,"name":"Atlanta Hartsfield-Jackson International Airport"},"airport2":{"country":"Spain","iata":"BCN","icao":"LEBL","lat":41.29707,"lon":2.078463,"name":"Barcelona El Prat Airport"}},{"airport1":{"country":"United States","iata":"ATL","icao":"KATL","lat":33.636719,"lon":-84.428001,"name":"Atlanta Hartsfield-Jackson International Airport"},"airport2":{"country":"Bermuda","iata":"BDA","icao":"TXKF","lat":32.36404,"lon":-64.678703,"name":"Bermuda L.F. Wade International Airport"}},{"airport1":{"country":"United States","iata":"ATL","icao":"KATL","lat":33.636719,"lon":-84.428001,"name":"Atlanta Hartsfield-Jackson International Airport"},"airport2":{"country":"United States","iata":"BDL","icao":"KBDL","lat":41.938595,"lon":-72.687958,"name":"Windsor Locks Bradley International Airport"}},{"airport1":{"country":"United States","iata":"ATL","icao":"KATL","lat":33.636719,"lon":-84.428001,"name":"Atlanta Hartsfield-Jackson International Airport"},"airport2":{"country":"Barbados","iata":"BGI","icao":"TBPB","lat":13.0746,"lon":-59.492401,"name":"Bridgetown Grantley Adams International Airport"}},{"airport1":{"country":"United States","iata":"ATL","icao":"KATL","lat":33.636719,"lon":-84.428001,"name":"Atlanta Hartsfield-Jackson International Airport"},"airport2":{"country":"United States","iata":"BHM","icao":"KBHM","lat":33.563629,"lon":-86.756027,"name":"Birmingham Shuttlesworth International Airport"}},{"airport1":{"country":"United States","iata":"ATL","icao":"KATL","lat":33.636719,"lon":-84.428001,"name":"Atlanta Hartsfield-Jackson International Airport"},"airport2":{"country":"United States","iata":"BMI","icao":"KBMI","lat":40.477112,"lon":-88.915901,"name":"Bloomington Central Illinois Regional Airport"}},{"airport1":{"country":"United States","iata":"ATL","icao":"KATL","lat":33.636719,"lon":-84.428001,"name":"Atlanta Hartsfield-Jackson International Airport"},"airport2":{"country":"United States","iata":"BNA","icao":"KBNA","lat":36.12447,"lon":-86.678101,"name":"Nashville International Airport"}},{"airport1":{"country":"United States","iata":"ATL","icao":"KATL","lat":33.636719,"lon":-84.428001,"name":"Atlanta Hartsfield-Jackson International Airport"},"airport2":{"country":"Colombia","iata":"BOG","icao":"SKBO","lat":4.703056,"lon":-74.138298,"name":"Bogota El Dorado International Airport"}},{"airport1":{"country":"United States","iata":"ATL","icao":"KATL","lat":33.636719,"lon":-84.428001,"name":"Atlanta Hartsfield-Jackson International Airport"},"airport2":{"country":"United States","iata":"BOI","icao":"KBOI","lat":43.564362,"lon":-116.222,"name":"Boise Airport"}},{"airport1":{"country":"United States","iata":"ATL","icao":"KATL","lat":33.636719,"lon":-84.428001,"name":"Atlanta Hartsfield-Jackson International Airport"},"airport2":{"country":"Netherlands","iata":"BON","icao":"TNCB","lat":12.13104,"lon":-68.268501,"name":"Bonaire Flamingo International Airport"}},{"airport1":{"country":"United States","iata":"ATL","icao":"KATL","lat":33.636719,"lon":-84.428001,"name":"Atlanta Hartsfield-Jackson International Airport"},"airport2":{"country":"United States","iata":"BOS","icao":"KBOS","lat":42.362968,"lon":-71.006401,"name":"Boston Logan International Airport"}},{"airport1":{"country":"United States","iata":"ATL","icao":"KATL","lat":33.636719,"lon":-84.428001,"name":"Atlanta Hartsfield-Jackson International Airport"},"airport2":{"country":"United States","iata":"BQK","icao":"KBQK","lat":31.258801,"lon":-81.4664,"name":"Brunswick Golden Isles Airport"}},{"airport1":{"country":"United States","iata":"ATL","icao":"KATL","lat":33.636719,"lon":-84.428001,"name":"Atlanta Hartsfield-Jackson International Airport"},"airport2":{"country":"United States","iata":"BTR","icao":"KBTR","lat":30.5329,"lon":-91.149803,"name":"Baton Rouge Metropolitan Airport"}},{"airport1":{"country":"United States","iata":"ATL","icao":"KATL","lat":33.636719,"lon":-84.428001,"name":"Atlanta Hartsfield-Jackson International Airport"},"airport2":{"country":"United States","iata":"BTV","icao":"KBTV","lat":44.471859,"lon":-73.153198,"name":"Burlington International Airport"}},{"airport1":{"country":"United States","iata":"ATL","icao":"KATL","lat":33.636719,"lon":-84.428001,"name":"Atlanta Hartsfield-Jackson International Airport"},"airport2":{"country":"United States","iata":"BUF","icao":"KBUF","lat":42.940331,"lon":-78.729744,"name":"Buffalo Niagara International Airport"}},{"airport1":{"country":"United States","iata":"ATL","icao":"KATL","lat":33.636719,"lon":-84.428001,"name":"Atlanta Hartsfield-Jackson International Airport"},"airport2":{"country":"United States","iata":"BUR","icao":"KBUR","lat":34.200661,"lon":-118.358002,"name":"Burbank Bob Hope Airport"}},{"airport1":{"country":"United States","iata":"ATL","icao":"KATL","lat":33.636719,"lon":-84.428001,"name":"Atlanta Hartsfield-Jackson International Airport"},"airport2":{"country":"United States","iata":"BWI","icao":"KBWI","lat":39.175362,"lon":-76.668297,"name":"Baltimore Washington International Airport"}},{"airport1":{"country":"United States","iata":"ATL","icao":"KATL","lat":33.636719,"lon":-84.428001,"name":"Atlanta Hartsfield-Jackson International Airport"},"airport2":{"country":"Belize","iata":"BZE","icao":"MZBZ","lat":17.539141,"lon":-88.308197,"name":"Belize City Philip S. W. Goldson International Airport"}},{"airport1":{"country":"United States","iata":"ATL","icao":"KATL","lat":33.636719,"lon":-84.428001,"name":"Atlanta Hartsfield-Jackson International Airport"},"airport2":{"country":"United States","iata":"BZN","icao":"KBZN","lat":45.77837,"lon":-111.152985,"name":"Bozeman Yellowstone International Airport"}},{"airport1":{"country":"United States","iata":"ATL","icao":"KATL","lat":33.636719,"lon":-84.428001,"name":"Atlanta Hartsfield-Jackson International Airport"},"airport2":{"country":"United States","iata":"CAE","icao":"KCAE","lat":33.938831,"lon":-81.119499,"name":"Columbia Metropolitan Airport"}},{"airport1":{"country":"United States","iata":"ATL","icao":"KATL","lat":33.636719,"lon":-84.428001,"name":"Atlanta Hartsfield-Jackson International Airport"},"airport2":{"country":"France","iata":"CDG","icao":"LFPG","lat":49.012516,"lon":2.555752,"name":"Paris Charles de Gaulle Airport"}},{"airport1":{"country":"United States","iata":"ATL","icao":"KATL","lat":33.636719,"lon":-84.428001,"name":"Atlanta Hartsfield-Jackson International Airport"},"airport2":{"country":"United States","iata":"CHA","icao":"KCHA","lat":35.035191,"lon":-85.203499,"name":"Chattanooga Metropolitan Airport"}},{"airport1":{"country":"United States","iata":"ATL","icao":"KATL","lat":33.636719,"lon":-84.428001,"name":"Atlanta Hartsfield-Jackson International Airport"},"airport2":{"country":"United States","iata":"CHO","icao":"KCHO","lat":38.138638,"lon":-78.452858,"name":"Charlottesville Albemarle Airport"}},{"airport1":{"country":"United States","iata":"ATL","icao":"KATL","lat":33.636719,"lon":-84.428001,"name":"Atlanta Hartsfield-Jackson International Airport"},"airport2":{"country":"United States","iata":"CHS","icao":"KCHS","lat":32.898628,"lon":-80.040497,"name":"Charleston International Airport"}},{"airport1":{"country":"United States","iata":"ATL","icao":"KATL","lat":33.636719,"lon":-84.428001,"name":"Atlanta Hartsfield-Jackson International Airport"},"airport2":{"country":"United States","iata":"CID","icao":"KCID","lat":41.884682,"lon":-91.710701,"name":"Cedar Rapids Eastern Iowa Airport"}},{"airport1":{"country":"United States","iata":"ATL","icao":"KATL","lat":33.636719,"lon":-84.428001,"name":"Atlanta Hartsfield-Jackson International Airport"},"airport2":{"country":"United States","iata":"CLE","icao":"KCLE","lat":41.410252,"lon":-81.853897,"name":"Cleveland Hopkins International Airport"}},{"airport1":{"country":"United States","iata":"ATL","icao":"KATL","lat":33.636719,"lon":-84.428001,"name":"Atlanta Hartsfield-Jackson International Airport"},"airport2":{"country":"United States","iata":"CLT","icao":"KCLT","lat":35.214001,"lon":-80.9431,"name":"Charlotte Douglas International Airport"}},{"airport1":{"country":"United States","iata":"ATL","icao":"KATL","lat":33.636719,"lon":-84.428001,"name":"Atlanta Hartsfield-Jackson International Airport"},"airport2":{"country":"United States","iata":"CMH","icao":"KCMH","lat":39.997971,"lon":-82.8918,"name":"Columbus John Glenn International Airport"}},{"airport1":{"country":"United States","iata":"ATL","icao":"KATL","lat":33.636719,"lon":-84.428001,"name":"Atlanta Hartsfield-Jackson International Airport"},"airport2":{"country":"United States","iata":"COS","icao":"KCOS","lat":38.805801,"lon":-104.699997,"name":"Colorado Springs Airport"}},{"airport1":{"country":"United States","iata":"ATL","icao":"KATL","lat":33.636719,"lon":-84.428001,"name":"Atlanta Hartsfield-Jackson International Airport"},"airport2":{"country":"South Africa","iata":"CPT","icao":"FACT","lat":-33.964802,"lon":18.60166,"name":"Cape Town International Airport"}},{"airport1":{"country":"United States","iata":"ATL","icao":"KATL","lat":33.636719,"lon":-84.428001,"name":"Atlanta Hartsfield-Jackson International Airport"},"airport2":{"country":"United States","iata":"CRW","icao":"KCRW","lat":38.373508,"lon":-81.596146,"name":"Charleston West Virginia International Yeager Airport"}},{"airport1":{"country":"United States","iata":"ATL","icao":"KATL","lat":33.636719,"lon":-84.428001,"name":"Atlanta Hartsfield-Jackson International Airport"},"airport2":{"country":"United States","iata":"CSG","icao":"KCSG","lat":32.516331,"lon":-84.938797,"name":"Columbus Metropolitan Airport"}},{"airport1":{"country":"United States","iata":"ATL","icao":"KATL","lat":33.636719,"lon":-84.428001,"name":"Atlanta Hartsfield-Jackson International Airport"},"airport2":{"country":"Colombia","iata":"CTG","icao":"SKCG","lat":10.4425,"lon":-75.512703,"name":"Cartagena Rafael Nunez International Airport"}},{"airport1":{"country":"United States","iata":"ATL","icao":"KATL","lat":33.636719,"lon":-84.428001,"name":"Atlanta Hartsfield-Jackson International Airport"},"airport2":{"country":"Mexico","iata":"CUN","icao":"MMUN","lat":21.03652,"lon":-86.876999,"name":"Cancun International Airport"}},{"airport1":{"country":"United States","iata":"ATL","icao":"KATL","lat":33.636719,"lon":-84.428001,"name":"Atlanta Hartsfield-Jackson International Airport"},"airport2":{"country":"Curacao","iata":"CUR","icao":"TNCC","lat":12.18885,"lon":-68.959801,"name":"Willemstad Curacao Hato International Airport"}},{"airport1":{"country":"United States","iata":"ATL","icao":"KATL","lat":33.636719,"lon":-84.428001,"name":"Atlanta Hartsfield-Jackson International Airport"},"airport2":{"country":"United States","iata":"CVG","icao":"KCVG","lat":39.048828,"lon":-84.667801,"name":"Cincinnati Northern Kentucky International Airport"}},{"airport1":{"country":"United States","iata":"ATL","icao":"KATL","lat":33.636719,"lon":-84.428001,"name":"Atlanta Hartsfield-Jackson International Airport"},"airport2":{"country":"Mexico","iata":"CZM","icao":"MMCZ","lat":20.5224,"lon":-86.925598,"name":"Cozumel International Airport"}},{"airport1":{"country":"United States","iata":"ATL","icao":"KATL","lat":33.636719,"lon":-84.428001,"name":"Atlanta Hartsfield-Jackson International Airport"},"airport2":{"country":"United States","iata":"DAB","icao":"KDAB","lat":29.185192,"lon":-81.060829,"name":"Daytona Beach International Airport"}},{"airport1":{"country":"United States","iata":"ATL","icao":"KATL","lat":33.636719,"lon":-84.428001,"name":"Atlanta Hartsfield-Jackson International Airport"},"airport2":{"country":"United States","iata":"DAL","icao":"KDAL","lat":32.847111,"lon":-96.8517,"name":"Dallas Love Field Airport"}},{"airport1":{"country":"United States","iata":"ATL","icao":"KATL","lat":33.636719,"lon":-84.428001,"name":"Atlanta Hartsfield-Jackson International Airport"},"airport2":{"country":"United States","iata":"DAY","icao":"KDAY","lat":39.90237,"lon":-84.219299,"name":"Dayton International Airport"}},{"airport1":{"country":"United States","iata":"ATL","icao":"KATL","lat":33.636719,"lon":-84.428001,"name":"Atlanta Hartsfield-Jackson International Airport"},"airport2":{"country":"United States","iata":"DCA","icao":"KDCA","lat":38.852081,"lon":-77.037697,"name":"Washington Ronald Reagan National Airport"}},{"airport1":{"country":"United States","iata":"ATL","icao":"KATL","lat":33.636719,"lon":-84.428001,"name":"Atlanta Hartsfield-Jackson International Airport"},"airport2":{"country":"United States","iata":"DEN","icao":"KDEN","lat":39.858784,"lon":-104.673882,"name":"Denver International Airport"}},{"airport1":{"country":"United States","iata":"ATL","icao":"KATL","lat":33.636719,"lon":-84.428001,"name":"Atlanta Hartsfield-Jackson International Airport"},"airport2":{"country":"United States","iata":"DFW","icao":"KDFW","lat":32.89682,"lon":-97.037903,"name":"Dallas Fort Worth International Airport"}},{"airport1":{"country":"United States","iata":"ATL","icao":"KATL","lat":33.636719,"lon":-84.428001,"name":"Atlanta Hartsfield-Jackson International Airport"},"airport2":{"country":"United States","iata":"DHN","icao":"KDHN","lat":31.321329,"lon":-85.4496,"name":"Dothan Regional Airport"}},{"airport1":{"country":"United States","iata":"ATL","icao":"KATL","lat":33.636719,"lon":-84.428001,"name":"Atlanta Hartsfield-Jackson International Airport"},"airport2":{"country":"United States","iata":"DSM","icao":"KDSM","lat":41.53397,"lon":-93.663002,"name":"Des Moines International Airport"}},{"airport1":{"country":"United States","iata":"ATL","icao":"KATL","lat":33.636719,"lon":-84.428001,"name":"Atlanta Hartsfield-Jackson International Airport"},"airport2":{"country":"United States","iata":"DTW","icao":"KDTW","lat":42.21244,"lon":-83.353302,"name":"Detroit Metropolitan Wayne County Airport"}},{"airport1":{"country":"United States","iata":"ATL","icao":"KATL","lat":33.636719,"lon":-84.428001,"name":"Atlanta Hartsfield-Jackson International Airport"},"airport2":{"country":"Ireland","iata":"DUB","icao":"EIDW","lat":53.427849,"lon":-6.255323,"name":"Dublin Airport"}},{"airport1":{"country":"United States","iata":"ATL","icao":"KATL","lat":33.636719,"lon":-84.428001,"name":"Atlanta Hartsfield-Jackson International Airport"},"airport2":{"country":"United States","iata":"ECP","icao":"KECP","lat":30.35,"lon":-85.790001,"name":"Panama City International Airport"}},{"airport1":{"country":"United States","iata":"ATL","icao":"KATL","lat":33.636719,"lon":-84.428001,"name":"Atlanta Hartsfield-Jackson International Airport"},"airport2":{"country":"United Kingdom","iata":"EDI","icao":"EGPH","lat":55.950001,"lon":-3.3725,"name":"Edinburgh Airport"}},{"airport1":{"country":"United States","iata":"ATL","icao":"KATL","lat":33.636719,"lon":-84.428001,"name":"Atlanta Hartsfield-Jackson International Airport"},"airport2":{"country":"Bahamas","iata":"ELH","icao":"MYEH","lat":25.474859,"lon":-76.683403,"name":"North Eleuthera Airport"}},{"airport1":{"country":"United States","iata":"ATL","icao":"KATL","lat":33.636719,"lon":-84.428001,"name":"Atlanta Hartsfield-Jackson International Airport"},"airport2":{"country":"United States","iata":"ELP","icao":"KELP","lat":31.806374,"lon":-106.38858,"name":"El Paso International Airport"}},{"airport1":{"country":"United States","iata":"ATL","icao":"KATL","lat":33.636719,"lon":-84.428001,"name":"Atlanta Hartsfield-Jackson International Airport"},"airport2":{"country":"United States","iata":"EVV","icao":"KEVV","lat":38.036991,"lon":-87.532303,"name":"Evansville Regional Airport"}},{"airport1":{"country":"United States","iata":"ATL","icao":"KATL","lat":33.636719,"lon":-84.428001,"name":"Atlanta Hartsfield-Jackson International Airport"},"airport2":{"country":"United States","iata":"EWR","icao":"KEWR","lat":40.692501,"lon":-74.168602,"name":"New York Newark Liberty International Airport"}},{"airport1":{"country":"United States","iata":"ATL","icao":"KATL","lat":33.636719,"lon":-84.428001,"name":"Atlanta Hartsfield-Jackson International Airport"},"airport2":{"country":"United States","iata":"EYW","icao":"KEYW","lat":24.55611,"lon":-81.759499,"name":"Key West International Airport"}},{"airport1":{"country":"United States","iata":"ATL","icao":"KATL","lat":33.636719,"lon":-84.428001,"name":"Atlanta Hartsfield-Jackson International Airport"},"airport2":{"country":"Argentina","iata":"EZE","icao":"SAEZ","lat":-34.822201,"lon":-58.535801,"name":"Buenos Aires Ministro Pistarini International Airport"}},{"airport1":{"country":"United States","iata":"ATL","icao":"KATL","lat":33.636719,"lon":-84.428001,"name":"Atlanta Hartsfield-Jackson International Airport"},"airport2":{"country":"United States","iata":"FAT","icao":"KFAT","lat":36.776192,"lon":-119.718002,"name":"Fresno Yosemite International Airport"}},{"airport1":{"country":"United States","iata":"ATL","icao":"KATL","lat":33.636719,"lon":-84.428001,"name":"Atlanta Hartsfield-Jackson International Airport"},"airport2":{"country":"United States","iata":"FAY","icao":"KFAY","lat":34.990002,"lon":-78.879997,"name":"Fayetteville Regional Airport"}},{"airport1":{"country":"United States","iata":"ATL","icao":"KATL","lat":33.636719,"lon":-84.428001,"name":"Atlanta Hartsfield-Jackson International Airport"},"airport2":{"country":"Italy","iata":"FCO","icao":"LIRF","lat":41.80447,"lon":12.25079,"name":"Rome Leonardo da Vinci Fiumicino Airport"}},{"airport1":{"country":"United States","iata":"ATL","icao":"KATL","lat":33.636719,"lon":-84.428001,"name":"Atlanta Hartsfield-Jackson International Airport"},"airport2":{"country":"United States","iata":"FLL","icao":"KFLL","lat":26.07258,"lon":-80.152702,"name":"Fort Lauderdale Hollywood International Airport"}},{"airport1":{"country":"United States","iata":"ATL","icao":"KATL","lat":33.636719,"lon":-84.428001,"name":"Atlanta Hartsfield-Jackson International Airport"},"airport2":{"country":"Germany","iata":"FRA","icao":"EDDF","lat":50.037796,"lon":8.555783,"name":"Frankfurt Airport"}},{"airport1":{"country":"United States","iata":"ATL","icao":"KATL","lat":33.636719,"lon":-84.428001,"name":"Atlanta Hartsfield-Jackson International Airport"},"airport2":{"country":"United States","iata":"FSD","icao":"KFSD","lat":43.582008,"lon":-96.741898,"name":"Sioux Falls Regional Airport"}},{"airport1":{"country":"United States","iata":"ATL","icao":"KATL","lat":33.636719,"lon":-84.428001,"name":"Atlanta Hartsfield-Jackson International Airport"},"airport2":{"country":"United States","iata":"FWA","icao":"KFWA","lat":40.97847,"lon":-85.195099,"name":"Fort Wayne International Airport"}},{"airport1":{"country":"United States","iata":"ATL","icao":"KATL","lat":33.636719,"lon":-84.428001,"name":"Atlanta Hartsfield-Jackson International Airport"},"airport2":{"country":"Cayman Islands","iata":"GCM","icao":"MWCR","lat":19.29277,"lon":-81.357697,"name":"George Town Owen Roberts International Airport"}},{"airport1":{"country":"United States","iata":"ATL","icao":"KATL","lat":33.636719,"lon":-84.428001,"name":"Atlanta Hartsfield-Jackson International Airport"},"airport2":{"country":"Mexico","iata":"GDL","icao":"MMGL","lat":20.521799,"lon":-103.310997,"name":"Guadalajara International Airport"}},{"airport1":{"country":"United States","iata":"ATL","icao":"KATL","lat":33.636719,"lon":-84.428001,"name":"Atlanta Hartsfield-Jackson International Airport"},"airport2":{"country":"United States","iata":"GEG","icao":"KGEG","lat":47.616913,"lon":-117.53978,"name":"Spokane International Airport"}},{"airport1":{"country":"United States","iata":"ATL","icao":"KATL","lat":33.636719,"lon":-84.428001,"name":"Atlanta Hartsfield-Jackson International Airport"},"airport2":{"country":"Bahamas","iata":"GGT","icao":"MYEF","lat":23.56263,"lon":-75.877899,"name":"George Town Exuma International Airport"}},{"airport1":{"country":"United States","iata":"ATL","icao":"KATL","lat":33.636719,"lon":-84.428001,"name":"Atlanta Hartsfield-Jackson International Airport"},"airport2":{"country":"Brazil","iata":"GIG","icao":"SBGL","lat":-22.805696,"lon":-43.25523,"name":"Rio de Janeiro Galeao International Airport"}},{"airport1":{"country":"United States","iata":"ATL","icao":"KATL","lat":33.636719,"lon":-84.428001,"name":"Atlanta Hartsfield-Jackson International Airport"},"airport2":{"country":"United States","iata":"GNV","icao":"KGNV","lat":29.69005,"lon":-82.271698,"name":"Gainesville Regional Airport"}},{"airport1":{"country":"United States","iata":"ATL","icao":"KATL","lat":33.636719,"lon":-84.428001,"name":"Atlanta Hartsfield-Jackson International Airport"},"airport2":{"country":"United States","iata":"GPT","icao":"KGPT","lat":30.407261,"lon":-89.07,"name":"Gulfport Biloxi International Airport"}},{"airport1":{"country":"United States","iata":"ATL","icao":"KATL","lat":33.636719,"lon":-84.428001,"name":"Atlanta Hartsfield-Jackson International Airport"},"airport2":{"country":"United States","iata":"GRB","icao":"KGRB","lat":44.484631,"lon":-88.1297,"name":"Green Bay Austin Straubel International Airport"}},{"airport1":{"country":"United States","iata":"ATL","icao":"KATL","lat":33.636719,"lon":-84.428001,"name":"Atlanta Hartsfield-Jackson International Airport"},"airport2":{"country":"United States","iata":"GRR","icao":"KGRR","lat":42.880074,"lon":-85.519577,"name":"Grand Rapids Gerald R. Ford International Airport"}},{"airport1":{"country":"United States","iata":"ATL","icao":"KATL","lat":33.636719,"lon":-84.428001,"name":"Atlanta Hartsfield-Jackson International Airport"},"airport2":{"country":"Brazil","iata":"GRU","icao":"SBGR","lat":-23.429991,"lon":-46.4674,"name":"Sao Paulo Guarulhos International Airport"}},{"airport1":{"country":"United States","iata":"ATL","icao":"KATL","lat":33.636719,"lon":-84.428001,"name":"Atlanta Hartsfield-Jackson International Airport"},"airport2":{"country":"United States","iata":"GSO","icao":"KGSO","lat":36.097752,"lon":-79.937302,"name":"Greensboro Piedmont Triad International Airport"}},{"airport1":{"country":"United States","iata":"ATL","icao":"KATL","lat":33.636719,"lon":-84.428001,"name":"Atlanta Hartsfield-Jackson International Airport"},"airport2":{"country":"United States","iata":"GSP","icao":"KGSP","lat":34.89566,"lon":-82.218803,"name":"Greenville-Spartanburg International Airport"}},{"airport1":{"country":"United States","iata":"ATL","icao":"KATL","lat":33.636719,"lon":-84.428001,"name":"Atlanta Hartsfield-Jackson International Airport"},"airport2":{"country":"United States","iata":"GTR","icao":"KGTR","lat":33.450329,"lon":-88.591301,"name":"Golden Triangle Regional Airport"}},{"airport1":{"country":"United States","iata":"ATL","icao":"KATL","lat":33.636719,"lon":-84.428001,"name":"Atlanta Hartsfield-Jackson International Airport"},"airport2":{"country":"Guatemala","iata":"GUA","icao":"MGGT","lat":14.58327,"lon":-90.527397,"name":"Guatemala City La Aurora International Airport"}},{"airport1":{"country":"United States","iata":"ATL","icao":"KATL","lat":33.636719,"lon":-84.428001,"name":"Atlanta Hartsfield-Jackson International Airport"},"airport2":{"country":"United States","iata":"HHH","icao":"KHXD","lat":32.223343,"lon":-80.698006,"name":"Hilton Head Island Airport"}},{"airport1":{"country":"United States","iata":"ATL","icao":"KATL","lat":33.636719,"lon":-84.428001,"name":"Atlanta Hartsfield-Jackson International Airport"},"airport2":{"country":"Japan","iata":"HND","icao":"RJTT","lat":35.55225,"lon":139.779602,"name":"Tokyo Haneda International Airport"}},{"airport1":{"country":"United States","iata":"ATL","icao":"KATL","lat":33.636719,"lon":-84.428001,"name":"Atlanta Hartsfield-Jackson International Airport"},"airport2":{"country":"United States","iata":"HNL","icao":"PHNL","lat":21.31868,"lon":-157.921997,"name":"Honolulu International Airport"}},{"airport1":{"country":"United States","iata":"ATL","icao":"KATL","lat":33.636719,"lon":-84.428001,"name":"Atlanta Hartsfield-Jackson International Airport"},"airport2":{"country":"United States","iata":"HOU","icao":"KHOU","lat":29.645411,"lon":-95.278801,"name":"Houston William P. Hobby Airport"}},{"airport1":{"country":"United States","iata":"ATL","icao":"KATL","lat":33.636719,"lon":-84.428001,"name":"Atlanta Hartsfield-Jackson International Airport"},"airport2":{"country":"United States","iata":"HPN","icao":"KHPN","lat":41.06694,"lon":-73.707497,"name":"White Plains Westchester County Airport"}},{"airport1":{"country":"United States","iata":"ATL","icao":"KATL","lat":33.636719,"lon":-84.428001,"name":"Atlanta Hartsfield-Jackson International Airport"},"airport2":{"country":"United States","iata":"HSV","icao":"KHSV","lat":34.637192,"lon":-86.775002,"name":"Huntsville International Airport"}},{"airport1":{"country":"United States","iata":"ATL","icao":"KATL","lat":33.636719,"lon":-84.428001,"name":"Atlanta Hartsfield-Jackson International Airport"},"airport2":{"country":"United States","iata":"IAD","icao":"KIAD","lat":38.947441,"lon":-77.4599,"name":"Washington Dulles International Airport"}},{"airport1":{"country":"United States","iata":"ATL","icao":"KATL","lat":33.636719,"lon":-84.428001,"name":"Atlanta Hartsfield-Jackson International Airport"},"airport2":{"country":"United States","iata":"IAH","icao":"KIAH","lat":29.98443,"lon":-95.3414,"name":"Houston George Bush Intercontinental Airport"}},{"airport1":{"country":"United States","iata":"ATL","icao":"KATL","lat":33.636719,"lon":-84.428001,"name":"Atlanta Hartsfield-Jackson International Airport"},"airport2":{"country":"South Korea","iata":"ICN","icao":"RKSI","lat":37.46907,"lon":126.4505,"name":"Seoul Incheon International Airport"}},{"airport1":{"country":"United States","iata":"ATL","icao":"KATL","lat":33.636719,"lon":-84.428001,"name":"Atlanta Hartsfield-Jackson International Airport"},"airport2":{"country":"United States","iata":"ICT","icao":"KICT","lat":37.64994,"lon":-97.432999,"name":"Wichita Dwight D. Eisenhower National Airport"}},{"airport1":{"country":"United States","iata":"ATL","icao":"KATL","lat":33.636719,"lon":-84.428001,"name":"Atlanta Hartsfield-Jackson International Airport"},"airport2":{"country":"United States","iata":"ILM","icao":"KILM","lat":34.27066,"lon":-77.902496,"name":"Wilmington International Airport"}},{"airport1":{"country":"United States","iata":"ATL","icao":"KATL","lat":33.636719,"lon":-84.428001,"name":"Atlanta Hartsfield-Jackson International Airport"},"airport2":{"country":"United States","iata":"IND","icao":"KIND","lat":39.717289,"lon":-86.294601,"name":"Indianapolis International Airport"}},{"airport1":{"country":"United States","iata":"ATL","icao":"KATL","lat":33.636719,"lon":-84.428001,"name":"Atlanta Hartsfield-Jackson International Airport"},"airport2":{"country":"United States","iata":"JAN","icao":"KJAN","lat":32.311161,"lon":-90.075798,"name":"Jackson Evers International Airport"}},{"airport1":{"country":"United States","iata":"ATL","icao":"KATL","lat":33.636719,"lon":-84.428001,"name":"Atlanta Hartsfield-Jackson International Airport"},"airport2":{"country":"United States","iata":"JAX","icao":"KJAX","lat":30.494049,"lon":-81.687798,"name":"Jacksonville International Airport"}},{"airport1":{"country":"United States","iata":"ATL","icao":"KATL","lat":33.636719,"lon":-84.428001,"name":"Atlanta Hartsfield-Jackson International Airport"},"airport2":{"country":"United States","iata":"JFK","icao":"KJFK","lat":40.639751,"lon":-73.7789,"name":"New York John F. Kennedy International Airport"}},{"airport1":{"country":"United States","iata":"ATL","icao":"KATL","lat":33.636719,"lon":-84.428001,"name":"Atlanta Hartsfield-Jackson International Airport"},"airport2":{"country":"South Africa","iata":"JNB","icao":"FAOR","lat":-26.139099,"lon":28.246,"name":"Johannesburg OR Tambo International Airport"}},{"airport1":{"country":"United States","iata":"ATL","icao":"KATL","lat":33.636719,"lon":-84.428001,"name":"Atlanta Hartsfield-Jackson International Airport"},"airport2":{"country":"Jamaica","iata":"KIN","icao":"MKJP","lat":17.935659,"lon":-76.787498,"name":"Kingston Norman Manley International Airport"}},{"airport1":{"country":"United States","iata":"ATL","icao":"KATL","lat":33.636719,"lon":-84.428001,"name":"Atlanta Hartsfield-Jackson International Airport"},"airport2":{"country":"United States","iata":"LAS","icao":"KLAS","lat":36.080051,"lon":-115.152,"name":"Las Vegas Harry Reid International Airport"}},{"airport1":{"country":"United States","iata":"ATL","icao":"KATL","lat":33.636719,"lon":-84.428001,"name":"Atlanta Hartsfield-Jackson International Airport"},"airport2":{"country":"United States","iata":"LAX","icao":"KLAX","lat":33.94252,"lon":-118.406998,"name":"Los Angeles International Airport"}},{"airport1":{"country":"United States","iata":"ATL","icao":"KATL","lat":33.636719,"lon":-84.428001,"name":"Atlanta Hartsfield-Jackson International Airport"},"airport2":{"country":"United States","iata":"LEX","icao":"KLEX","lat":38.036499,"lon":-84.605797,"name":"Lexington Blue Grass Airport"}},{"airport1":{"country":"United States","iata":"ATL","icao":"KATL","lat":33.636719,"lon":-84.428001,"name":"Atlanta Hartsfield-Jackson International Airport"},"airport2":{"country":"United States","iata":"LFT","icao":"KLFT","lat":30.20525,"lon":-91.987602,"name":"Lafayette Regional Airport"}},{"airport1":{"country":"United States","iata":"ATL","icao":"KATL","lat":33.636719,"lon":-84.428001,"name":"Atlanta Hartsfield-Jackson International Airport"},"airport2":{"country":"United States","iata":"LGA","icao":"KLGA","lat":40.777248,"lon":-73.872597,"name":"New York LaGuardia Airport"}},{"airport1":{"country":"United States","iata":"ATL","icao":"KATL","lat":33.636719,"lon":-84.428001,"name":"Atlanta Hartsfield-Jackson International Airport"},"airport2":{"country":"United Kingdom","iata":"LHR","icao":"EGLL","lat":51.471626,"lon":-0.467081,"name":"London Heathrow Airport"}},{"airport1":{"country":"United States","iata":"ATL","icao":"KATL","lat":33.636719,"lon":-84.428001,"name":"Atlanta Hartsfield-Jackson International Airport"},"airport2":{"country":"Peru","iata":"LIM","icao":"SPJC","lat":-12.0218,"lon":-77.114304,"name":"Lima Jorge Chavez International Airport"}},{"airport1":{"country":"United States","iata":"ATL","icao":"KATL","lat":33.636719,"lon":-84.428001,"name":"Atlanta Hartsfield-Jackson International Airport"},"airport2":{"country":"Costa Rica","iata":"LIR","icao":"MRLB","lat":10.59301,"lon":-85.545502,"name":"Liberia Guanacaste International Airport"}},{"airport1":{"country":"United States","iata":"ATL","icao":"KATL","lat":33.636719,"lon":-84.428001,"name":"Atlanta Hartsfield-Jackson International Airport"},"airport2":{"country":"United States","iata":"LIT","icao":"KLIT","lat":34.729439,"lon":-92.224297,"name":"Little Rock Clinton National Airport"}},{"airport1":{"country":"United States","iata":"ATL","icao":"KATL","lat":33.636719,"lon":-84.428001,"name":"Atlanta Hartsfield-Jackson International Airport"},"airport2":{"country":"Nigeria","iata":"LOS","icao":"DNMM","lat":6.577369,"lon":3.321156,"name":"Lagos Murtala Mohammed Airport"}},{"airport1":{"country":"United States","iata":"ATL","icao":"KATL","lat":33.636719,"lon":-84.428001,"name":"Atlanta Hartsfield-Jackson International Airport"},"airport2":{"country":"Spain","iata":"MAD","icao":"LEMD","lat":40.488701,"lon":-3.57,"name":"Madrid Barajas Airport"}},{"airport1":{"country":"United States","iata":"ATL","icao":"KATL","lat":33.636719,"lon":-84.428001,"name":"Atlanta Hartsfield-Jackson International Airport"},"airport2":{"country":"Jamaica","iata":"MBJ","icao":"MKJS","lat":18.50371,"lon":-77.9133,"name":"Montego Bay Sangster International Airport"}},{"airport1":{"country":"United States","iata":"ATL","icao":"KATL","lat":33.636719,"lon":-84.428001,"name":"Atlanta Hartsfield-Jackson International Airport"},"airport2":{"country":"United States","iata":"MCI","icao":"KMCI","lat":39.2976,"lon":-94.713898,"name":"Kansas City International Airport"}},{"airport1":{"country":"United States","iata":"ATL","icao":"KATL","lat":33.636719,"lon":-84.428001,"name":"Atlanta Hartsfield-Jackson International Airport"},"airport2":{"country":"United States","iata":"MCO","icao":"KMCO","lat":28.42939,"lon":-81.308899,"name":"Orlando International Airport"}},{"airport1":{"country":"United States","iata":"ATL","icao":"KATL","lat":33.636719,"lon":-84.428001,"name":"Atlanta Hartsfield-Jackson International Airport"},"airport2":{"country":"United States","iata":"MDT","icao":"KMDT","lat":40.193489,"lon":-76.763397,"name":"Harrisburg International Airport"}},{"airport1":{"country":"United States","iata":"ATL","icao":"KATL","lat":33.636719,"lon":-84.428001,"name":"Atlanta Hartsfield-Jackson International Airport"},"airport2":{"country":"United States","iata":"MDW","icao":"KMDW","lat":41.785969,"lon":-87.752403,"name":"Chicago Midway International Airport"}},{"airport1":{"country":"United States","iata":"ATL","icao":"KATL","lat":33.636719,"lon":-84.428001,"name":"Atlanta Hartsfield-Jackson International Airport"},"airport2":{"country":"United States","iata":"MEM","icao":"KMEM","lat":35.042412,"lon":-89.976601,"name":"Memphis International Airport"}},{"airport1":{"country":"United States","iata":"ATL","icao":"KATL","lat":33.636719,"lon":-84.428001,"name":"Atlanta Hartsfield-Jackson International Airport"},"airport2":{"country":"Mexico","iata":"MEX","icao":"MMMX","lat":19.4363,"lon":-99.071999,"name":"Mexico City International Airport"}},{"airport1":{"country":"United States","iata":"ATL","icao":"KATL","lat":33.636719,"lon":-84.428001,"name":"Atlanta Hartsfield-Jackson International Airport"},"airport2":{"country":"United States","iata":"MGM","icao":"KMGM","lat":32.300629,"lon":-86.393898,"name":"Montgomery Regional Airport"}},{"airport1":{"country":"United States","iata":"ATL","icao":"KATL","lat":33.636719,"lon":-84.428001,"name":"Atlanta Hartsfield-Jackson International Airport"},"airport2":{"country":"Bahamas","iata":"MHH","icao":"MYAM","lat":26.5114,"lon":-77.083397,"name":"Marsh Harbour Airport"}},{"airport1":{"country":"United States","iata":"ATL","icao":"KATL","lat":33.636719,"lon":-84.428001,"name":"Atlanta Hartsfield-Jackson International Airport"},"airport2":{"country":"United States","iata":"MIA","icao":"KMIA","lat":25.793249,"lon":-80.290497,"name":"Miami International Airport"}},{"airport1":{"country":"United States","iata":"ATL","icao":"KATL","lat":33.636719,"lon":-84.428001,"name":"Atlanta Hartsfield-Jackson International Airport"},"airport2":{"country":"United States","iata":"MKE","icao":"KMKE","lat":42.94722,"lon":-87.8965,"name":"Milwaukee General Mitchell International Airport"}},{"airport1":{"country":"United States","iata":"ATL","icao":"KATL","lat":33.636719,"lon":-84.428001,"name":"Atlanta Hartsfield-Jackson International Airport"},"airport2":{"country":"United States","iata":"MLB","icao":"KMLB","lat":28.102751,"lon":-80.645203,"name":"Melbourne International Airport"}},{"airport1":{"country":"United States","iata":"ATL","icao":"KATL","lat":33.636719,"lon":-84.428001,"name":"Atlanta Hartsfield-Jackson International Airport"},"airport2":{"country":"United States","iata":"MLI","icao":"KMLI","lat":41.448879,"lon":-90.504738,"name":"Moline Quad City International Airport"}},{"airport1":{"country":"United States","iata":"ATL","icao":"KATL","lat":33.636719,"lon":-84.428001,"name":"Atlanta Hartsfield-Jackson International Airport"},"airport2":{"country":"United States","iata":"MLU","icao":"KMLU","lat":32.51086,"lon":-92.037598,"name":"Monroe Regional Airport"}},{"airport1":{"country":"United States","iata":"ATL","icao":"KATL","lat":33.636719,"lon":-84.428001,"name":"Atlanta Hartsfield-Jackson International Airport"},"airport2":{"country":"United States","iata":"MOB","icao":"KMOB","lat":30.69141,"lon":-88.242798,"name":"Mobile Regional Airport"}},{"airport1":{"country":"United States","iata":"ATL","icao":"KATL","lat":33.636719,"lon":-84.428001,"name":"Atlanta Hartsfield-Jackson International Airport"},"airport2":{"country":"United States","iata":"MSN","icao":"KMSN","lat":43.139851,"lon":-89.337502,"name":"Madison Dane County Regional Airport"}},{"airport1":{"country":"United States","iata":"ATL","icao":"KATL","lat":33.636719,"lon":-84.428001,"name":"Atlanta Hartsfield-Jackson International Airport"},"airport2":{"country":"United States","iata":"MSP","icao":"KMSP","lat":44.88195,"lon":-93.221703,"name":"Minneapolis Saint Paul International Airport"}},{"airport1":{"country":"United States","iata":"ATL","icao":"KATL","lat":33.636719,"lon":-84.428001,"name":"Atlanta Hartsfield-Jackson International Airport"},"airport2":{"country":"United States","iata":"MSY","icao":"KMSY","lat":29.99338,"lon":-90.258003,"name":"New Orleans Louis Armstrong International Airport"}},{"airport1":{"country":"United States","iata":"ATL","icao":"KATL","lat":33.636719,"lon":-84.428001,"name":"Atlanta Hartsfield-Jackson International Airport"},"airport2":{"country":"Mexico","iata":"MTY","icao":"MMMY","lat":25.778481,"lon":-100.106003,"name":"Monterrey International Airport"}},{"airport1":{"country":"United States","iata":"ATL","icao":"KATL","lat":33.636719,"lon":-84.428001,"name":"Atlanta Hartsfield-Jackson International Airport"},"airport2":{"country":"Germany","iata":"MUC","icao":"EDDM","lat":48.353779,"lon":11.78608,"name":"Munich Airport"}},{"airport1":{"country":"United States","iata":"ATL","icao":"KATL","lat":33.636719,"lon":-84.428001,"name":"Atlanta Hartsfield-Jackson International Airport"},"airport2":{"country":"Italy","iata":"MXP","icao":"LIMC","lat":45.6306,"lon":8.728111,"name":"Milan Malpensa Airport"}},{"airport1":{"country":"United States","iata":"ATL","icao":"KATL","lat":33.636719,"lon":-84.428001,"name":"Atlanta Hartsfield-Jackson International Airport"},"airport2":{"country":"United States","iata":"MYR","icao":"KMYR","lat":33.679749,"lon":-78.928299,"name":"Myrtle Beach International Airport"}},{"airport1":{"country":"United States","iata":"ATL","icao":"KATL","lat":33.636719,"lon":-84.428001,"name":"Atlanta Hartsfield-Jackson International Airport"},"airport2":{"country":"Bahamas","iata":"NAS","icao":"MYNN","lat":25.04105,"lon":-77.463669,"name":"Nassau Lynden Pindling International Airport"}},{"airport1":{"country":"United States","iata":"ATL","icao":"KATL","lat":33.636719,"lon":-84.428001,"name":"Atlanta Hartsfield-Jackson International Airport"},"airport2":{"country":"France","iata":"NCE","icao":"LFMN","lat":43.661453,"lon":7.21736,"name":"Nice Cote d'Azur Airport"}},{"airport1":{"country":"United States","iata":"ATL","icao":"KATL","lat":33.636719,"lon":-84.428001,"name":"Atlanta Hartsfield-Jackson International Airport"},"airport2":{"country":"United States","iata":"OAJ","icao":"KOAJ","lat":34.830441,"lon":-77.605835,"name":"Jacksonville Albert J. Ellis Airport"}},{"airport1":{"country":"United States","iata":"ATL","icao":"KATL","lat":33.636719,"lon":-84.428001,"name":"Atlanta Hartsfield-Jackson International Airport"},"airport2":{"country":"United States","iata":"OKC","icao":"KOKC","lat":35.392174,"lon":-97.597954,"name":"Oklahoma City Will Rogers World Airport"}},{"airport1":{"country":"United States","iata":"ATL","icao":"KATL","lat":33.636719,"lon":-84.428001,"name":"Atlanta Hartsfield-Jackson International Airport"},"airport2":{"country":"United States","iata":"OMA","icao":"KOMA","lat":41.303162,"lon":-95.893997,"name":"Omaha Eppley Airfield"}},{"airport1":{"country":"United States","iata":"ATL","icao":"KATL","lat":33.636719,"lon":-84.428001,"name":"Atlanta Hartsfield-Jackson International Airport"},"airport2":{"country":"United States","iata":"ONT","icao":"KONT","lat":34.056,"lon":-117.600998,"name":"Ontario International Airport"}},{"airport1":{"country":"United States","iata":"ATL","icao":"KATL","lat":33.636719,"lon":-84.428001,"name":"Atlanta Hartsfield-Jackson International Airport"},"airport2":{"country":"United States","iata":"ORD","icao":"KORD","lat":41.978142,"lon":-87.9058,"name":"Chicago O'Hare International Airport"}},{"airport1":{"country":"United States","iata":"ATL","icao":"KATL","lat":33.636719,"lon":-84.428001,"name":"Atlanta Hartsfield-Jackson International Airport"},"airport2":{"country":"United States","iata":"ORF","icao":"KORF","lat":36.893753,"lon":-76.200729,"name":"Norfolk International Airport"}},{"airport1":{"country":"United States","iata":"ATL","icao":"KATL","lat":33.636719,"lon":-84.428001,"name":"Atlanta Hartsfield-Jackson International Airport"},"airport2":{"country":"United States","iata":"PBI","icao":"KPBI","lat":26.683161,"lon":-80.095497,"name":"West Palm Beach International Airport"}},{"airport1":{"country":"United States","iata":"ATL","icao":"KATL","lat":33.636719,"lon":-84.428001,"name":"Atlanta Hartsfield-Jackson International Airport"},"airport2":{"country":"United States","iata":"PDX","icao":"KPDX","lat":45.588718,"lon":-122.597,"name":"Portland International Airport"}},{"airport1":{"country":"United States","iata":"ATL","icao":"KATL","lat":33.636719,"lon":-84.428001,"name":"Atlanta Hartsfield-Jackson International Airport"},"airport2":{"country":"United States","iata":"PHL","icao":"KPHL","lat":39.871941,"lon":-75.241096,"name":"Philadelphia International Airport"}},{"airport1":{"country":"United States","iata":"ATL","icao":"KATL","lat":33.636719,"lon":-84.428001,"name":"Atlanta Hartsfield-Jackson International Airport"},"airport2":{"country":"United States","iata":"PHX","icao":"KPHX","lat":33.434269,"lon":-112.011002,"name":"Phoenix Sky Harbor International Airport"}},{"airport1":{"country":"United States","iata":"ATL","icao":"KATL","lat":33.636719,"lon":-84.428001,"name":"Atlanta Hartsfield-Jackson International Airport"},"airport2":{"country":"United States","iata":"PIT","icao":"KPIT","lat":40.49147,"lon":-80.232803,"name":"Pittsburgh International Airport"}},{"airport1":{"country":"United States","iata":"ATL","icao":"KATL","lat":33.636719,"lon":-84.428001,"name":"Atlanta Hartsfield-Jackson International Airport"},"airport2":{"country":"Turks And Caicos Islands","iata":"PLS","icao":"MBPV","lat":21.773621,"lon":-72.2658,"name":"Providenciales International Airport"}},{"airport1":{"country":"United States","iata":"ATL","icao":"KATL","lat":33.636719,"lon":-84.428001,"name":"Atlanta Hartsfield-Jackson International Airport"},"airport2":{"country":"United States","iata":"PNS","icao":"KPNS","lat":30.473419,"lon":-87.1866,"name":"Pensacola International Airport"}},{"airport1":{"country":"United States","iata":"ATL","icao":"KATL","lat":33.636719,"lon":-84.428001,"name":"Atlanta Hartsfield-Jackson International Airport"},"airport2":{"country":"United States","iata":"PSP","icao":"KPSP","lat":33.829659,"lon":-116.505997,"name":"Palm Springs International Airport"}},{"airport1":{"country":"United States","iata":"ATL","icao":"KATL","lat":33.636719,"lon":-84.428001,"name":"Atlanta Hartsfield-Jackson International Airport"},"airport2":{"country":"Panama","iata":"PTY","icao":"MPTO","lat":9.071364,"lon":-79.3834,"name":"Panama City Tocumen International Airport"}},{"airport1":{"country":"United States","iata":"ATL","icao":"KATL","lat":33.636719,"lon":-84.428001,"name":"Atlanta Hartsfield-Jackson International Airport"},"airport2":{"country":"Dominican Republic","iata":"PUJ","icao":"MDPC","lat":18.56736,"lon":-68.363403,"name":"Punta Cana International Airport"}},{"airport1":{"country":"United States","iata":"ATL","icao":"KATL","lat":33.636719,"lon":-84.428001,"name":"Atlanta Hartsfield-Jackson International Airport"},"airport2":{"country":"United States","iata":"PVD","icao":"KPVD","lat":41.724056,"lon":-71.426224,"name":"Providence Rhode Island T. F. Green International Airport"}},{"airport1":{"country":"United States","iata":"ATL","icao":"KATL","lat":33.636719,"lon":-84.428001,"name":"Atlanta Hartsfield-Jackson International Airport"},"airport2":{"country":"Mexico","iata":"PVR","icao":"MMPR","lat":20.68008,"lon":-105.253998,"name":"Puerto Vallarta International Airport"}},{"airport1":{"country":"United States","iata":"ATL","icao":"KATL","lat":33.636719,"lon":-84.428001,"name":"Atlanta Hartsfield-Jackson International Airport"},"airport2":{"country":"United States","iata":"PWM","icao":"KPWM","lat":43.64616,"lon":-70.309196,"name":"Portland International Jetport"}},{"airport1":{"country":"United States","iata":"ATL","icao":"KATL","lat":33.636719,"lon":-84.428001,"name":"Atlanta Hartsfield-Jackson International Airport"},"airport2":{"country":"United States","iata":"RDU","icao":"KRDU","lat":35.877628,"lon":-78.787399,"name":"Raleigh-Durham International Airport"}},{"airport1":{"country":"United States","iata":"ATL","icao":"KATL","lat":33.636719,"lon":-84.428001,"name":"Atlanta Hartsfield-Jackson International Airport"},"airport2":{"country":"United States","iata":"RIC","icao":"KRIC","lat":37.509007,"lon":-77.320419,"name":"Richmond Airport"}},{"airport1":{"country":"United States","iata":"ATL","icao":"KATL","lat":33.636719,"lon":-84.428001,"name":"Atlanta Hartsfield-Jackson International Airport"},"airport2":{"country":"United States","iata":"RNO","icao":"KRNO","lat":39.499111,"lon":-119.767998,"name":"Reno Tahoe International Airport"}},{"airport1":{"country":"United States","iata":"ATL","icao":"KATL","lat":33.636719,"lon":-84.428001,"name":"Atlanta Hartsfield-Jackson International Airport"},"airport2":{"country":"United States","iata":"ROA","icao":"KROA","lat":37.32,"lon":-79.970001,"name":"Roanoke Regional Airport"}},{"airport1":{"country":"United States","iata":"ATL","icao":"KATL","lat":33.636719,"lon":-84.428001,"name":"Atlanta Hartsfield-Jackson International Airport"},"airport2":{"country":"United States","iata":"ROC","icao":"KROC","lat":43.118858,"lon":-77.672302,"name":"Rochester International Airport"}},{"airport1":{"country":"United States","iata":"ATL","icao":"KATL","lat":33.636719,"lon":-84.428001,"name":"Atlanta Hartsfield-Jackson International Airport"},"airport2":{"country":"United States","iata":"RSW","icao":"KRSW","lat":26.53616,"lon":-81.755096,"name":"Southwest Florida International Airport"}},{"airport1":{"country":"United States","iata":"ATL","icao":"KATL","lat":33.636719,"lon":-84.428001,"name":"Atlanta Hartsfield-Jackson International Airport"},"airport2":{"country":"Honduras","iata":"RTB","icao":"MHRO","lat":16.316811,"lon":-86.522903,"name":"Roatan International Airport"}},{"airport1":{"country":"United States","iata":"ATL","icao":"KATL","lat":33.636719,"lon":-84.428001,"name":"Atlanta Hartsfield-Jackson International Airport"},"airport2":{"country":"El Salvador","iata":"SAL","icao":"MSLP","lat":13.44094,"lon":-89.055702,"name":"San Salvador International Airport"}},{"airport1":{"country":"United States","iata":"ATL","icao":"KATL","lat":33.636719,"lon":-84.428001,"name":"Atlanta Hartsfield-Jackson International Airport"},"airport2":{"country":"United States","iata":"SAN","icao":"KSAN","lat":32.733551,"lon":-117.189003,"name":"San Diego International Airport"}},{"airport1":{"country":"United States","iata":"ATL","icao":"KATL","lat":33.636719,"lon":-84.428001,"name":"Atlanta Hartsfield-Jackson International Airport"},"airport2":{"country":"Honduras","iata":"SAP","icao":"MHLM","lat":15.45263,"lon":-87.9235,"name":"San Pedro Sula La Mesa International Airport"}},{"airport1":{"country":"United States","iata":"ATL","icao":"KATL","lat":33.636719,"lon":-84.428001,"name":"Atlanta Hartsfield-Jackson International Airport"},"airport2":{"country":"United States","iata":"SAT","icao":"KSAT","lat":29.533689,"lon":-98.469704,"name":"San Antonio International Airport"}},{"airport1":{"country":"United States","iata":"ATL","icao":"KATL","lat":33.636719,"lon":-84.428001,"name":"Atlanta Hartsfield-Jackson International Airport"},"airport2":{"country":"United States","iata":"SAV","icao":"KSAV","lat":32.127579,"lon":-81.202103,"name":"Savannah Hilton Head International Airport"}},{"airport1":{"country":"United States","iata":"ATL","icao":"KATL","lat":33.636719,"lon":-84.428001,"name":"Atlanta Hartsfield-Jackson International Airport"},"airport2":{"country":"United States","iata":"SBA","icao":"KSBA","lat":34.426182,"lon":-119.841003,"name":"Santa Barbara Municipal Airport"}},{"airport1":{"country":"United States","iata":"ATL","icao":"KATL","lat":33.636719,"lon":-84.428001,"name":"Atlanta Hartsfield-Jackson International Airport"},"airport2":{"country":"United States","iata":"SBN","icao":"KSBN","lat":41.706268,"lon":-86.316742,"name":"South Bend Airport"}},{"airport1":{"country":"United States","iata":"ATL","icao":"KATL","lat":33.636719,"lon":-84.428001,"name":"Atlanta Hartsfield-Jackson International Airport"},"airport2":{"country":"Chile","iata":"SCL","icao":"SCEL","lat":-33.392899,"lon":-70.785797,"name":"Santiago International Airport"}},{"airport1":{"country":"United States","iata":"ATL","icao":"KATL","lat":33.636719,"lon":-84.428001,"name":"Atlanta Hartsfield-Jackson International Airport"},"airport2":{"country":"United States","iata":"SDF","icao":"KSDF","lat":38.17408,"lon":-85.736397,"name":"Louisville International Airport"}},{"airport1":{"country":"United States","iata":"ATL","icao":"KATL","lat":33.636719,"lon":-84.428001,"name":"Atlanta Hartsfield-Jackson International Airport"},"airport2":{"country":"Dominican Republic","iata":"SDQ","icao":"MDSD","lat":18.429661,"lon":-69.6689,"name":"Santo Domingo Las Americas International Airport"}},{"airport1":{"country":"United States","iata":"ATL","icao":"KATL","lat":33.636719,"lon":-84.428001,"name":"Atlanta Hartsfield-Jackson International Airport"},"airport2":{"country":"United States","iata":"SEA","icao":"KSEA","lat":47.4482,"lon":-122.311203,"name":"Seattle Tacoma International Airport"}},{"airport1":{"country":"United States","iata":"ATL","icao":"KATL","lat":33.636719,"lon":-84.428001,"name":"Atlanta Hartsfield-Jackson International Airport"},"airport2":{"country":"United States","iata":"SFO","icao":"KSFO","lat":37.618969,"lon":-122.374001,"name":"San Francisco International Airport"}},{"airport1":{"country":"United States","iata":"ATL","icao":"KATL","lat":33.636719,"lon":-84.428001,"name":"Atlanta Hartsfield-Jackson International Airport"},"airport2":{"country":"United States","iata":"SGF","icao":"KSGF","lat":37.245659,"lon":-93.388603,"name":"Springfield Branson National Airport"}},{"airport1":{"country":"United States","iata":"ATL","icao":"KATL","lat":33.636719,"lon":-84.428001,"name":"Atlanta Hartsfield-Jackson International Airport"},"airport2":{"country":"United States","iata":"SHV","icao":"KSHV","lat":32.446609,"lon":-93.8256,"name":"Shreveport Regional Airport"}},{"airport1":{"country":"United States","iata":"ATL","icao":"KATL","lat":33.636719,"lon":-84.428001,"name":"Atlanta Hartsfield-Jackson International Airport"},"airport2":{"country":"United States","iata":"SJC","icao":"KSJC","lat":37.362659,"lon":-121.929001,"name":"San Jose International Airport"}},{"airport1":{"country":"United States","iata":"ATL","icao":"KATL","lat":33.636719,"lon":-84.428001,"name":"Atlanta Hartsfield-Jackson International Airport"},"airport2":{"country":"Mexico","iata":"SJD","icao":"MMSD","lat":23.15185,"lon":-109.72068,"name":"San Jose del Cabo Los Cabos International Airport"}},{"airport1":{"country":"United States","iata":"ATL","icao":"KATL","lat":33.636719,"lon":-84.428001,"name":"Atlanta Hartsfield-Jackson International Airport"},"airport2":{"country":"Costa Rica","iata":"SJO","icao":"MROC","lat":9.993903,"lon":-84.208801,"name":"San Jose Juan Santamaria International Airport"}},{"airport1":{"country":"United States","iata":"ATL","icao":"KATL","lat":33.636719,"lon":-84.428001,"name":"Atlanta Hartsfield-Jackson International Airport"},"airport2":{"country":"Puerto Rico","iata":"SJU","icao":"TJSJ","lat":18.439409,"lon":-66.001801,"name":"San Juan Luis Munoz Marin International Airport"}},{"airport1":{"country":"United States","iata":"ATL","icao":"KATL","lat":33.636719,"lon":-84.428001,"name":"Atlanta Hartsfield-Jackson International Airport"},"airport2":{"country":"Saint Kitts And Nevis","iata":"SKB","icao":"TKPK","lat":17.31119,"lon":-62.718601,"name":"Basseterre Robert L. Bradshaw International Airport"}},{"airport1":{"country":"United States","iata":"ATL","icao":"KATL","lat":33.636719,"lon":-84.428001,"name":"Atlanta Hartsfield-Jackson International Airport"},"airport2":{"country":"United States","iata":"SLC","icao":"KSLC","lat":40.78838,"lon":-111.976997,"name":"Salt Lake City International Airport"}},{"airport1":{"country":"United States","iata":"ATL","icao":"KATL","lat":33.636719,"lon":-84.428001,"name":"Atlanta Hartsfield-Jackson International Airport"},"airport2":{"country":"United States","iata":"SMF","icao":"KSMF","lat":38.695412,"lon":-121.589996,"name":"Sacramento International Airport"}},{"airport1":{"country":"United States","iata":"ATL","icao":"KATL","lat":33.636719,"lon":-84.428001,"name":"Atlanta Hartsfield-Jackson International Airport"},"airport2":{"country":"United States","iata":"SNA","icao":"KSNA","lat":33.675659,"lon":-117.867996,"name":"Santa Ana John Wayne Airport"}},{"airport1":{"country":"United States","iata":"ATL","icao":"KATL","lat":33.636719,"lon":-84.428001,"name":"Atlanta Hartsfield-Jackson International Airport"},"airport2":{"country":"United States","iata":"SRQ","icao":"KSRQ","lat":27.394335,"lon":-82.553741,"name":"Sarasota Bradenton International Airport"}},{"airport1":{"country":"United States","iata":"ATL","icao":"KATL","lat":33.636719,"lon":-84.428001,"name":"Atlanta Hartsfield-Jackson International Airport"},"airport2":{"country":"United States","iata":"STL","icao":"KSTL","lat":38.748692,"lon":-90.370003,"name":"St. Louis Lambert International Airport"}},{"airport1":{"country":"United States","iata":"ATL","icao":"KATL","lat":33.636719,"lon":-84.428001,"name":"Atlanta Hartsfield-Jackson International Airport"},"airport2":{"country":"Virgin Islands Us","iata":"STT","icao":"TIST","lat":18.337299,"lon":-64.973297,"name":"St. Thomas Cyril E. King Airport"}},{"airport1":{"country":"United States","iata":"ATL","icao":"KATL","lat":33.636719,"lon":-84.428001,"name":"Atlanta Hartsfield-Jackson International Airport"},"airport2":{"country":"Virgin Islands Us","iata":"STX","icao":"TISX","lat":17.70155,"lon":-64.801697,"name":"St. Croix Henry E. Rohlsen Airport"}},{"airport1":{"country":"United States","iata":"ATL","icao":"KATL","lat":33.636719,"lon":-84.428001,"name":"Atlanta Hartsfield-Jackson International Airport"},"airport2":{"country":"Netherlands","iata":"SXM","icao":"TNCM","lat":18.040951,"lon":-63.108898,"name":"Sint Maarten Princess Juliana International Airport"}},{"airport1":{"country":"United States","iata":"ATL","icao":"KATL","lat":33.636719,"lon":-84.428001,"name":"Atlanta Hartsfield-Jackson International Airport"},"airport2":{"country":"United States","iata":"SYR","icao":"KSYR","lat":43.111179,"lon":-76.1063,"name":"Syracuse Hancock International Airport"}},{"airport1":{"country":"United States","iata":"ATL","icao":"KATL","lat":33.636719,"lon":-84.428001,"name":"Atlanta Hartsfield-Jackson International Airport"},"airport2":{"country":"United States","iata":"TLH","icao":"KTLH","lat":30.396521,"lon":-84.350304,"name":"Tallahassee International Airport"}},{"airport1":{"country":"United States","iata":"ATL","icao":"KATL","lat":33.636719,"lon":-84.428001,"name":"Atlanta Hartsfield-Jackson International Airport"},"airport2":{"country":"United States","iata":"TPA","icao":"KTPA","lat":27.97547,"lon":-82.533203,"name":"Tampa International Airport"}},{"airport1":{"country":"United States","iata":"ATL","icao":"KATL","lat":33.636719,"lon":-84.428001,"name":"Atlanta Hartsfield-Jackson International Airport"},"airport2":{"country":"Mexico","iata":"TQO","icao":"MMTL","lat":20.174339,"lon":-87.65873,"name":"Tulum International Airport"}},{"airport1":{"country":"United States","iata":"ATL","icao":"KATL","lat":33.636719,"lon":-84.428001,"name":"Atlanta Hartsfield-Jackson International Airport"},"airport2":{"country":"United States","iata":"TRI","icao":"KTRI","lat":36.47522,"lon":-82.407402,"name":"Blountville Tri-Cities Regional Airport"}},{"airport1":{"country":"United States","iata":"ATL","icao":"KATL","lat":33.636719,"lon":-84.428001,"name":"Atlanta Hartsfield-Jackson International Airport"},"airport2":{"country":"United States","iata":"TUL","icao":"KTUL","lat":36.195507,"lon":-95.886124,"name":"Tulsa International Airport"}},{"airport1":{"country":"United States","iata":"ATL","icao":"KATL","lat":33.636719,"lon":-84.428001,"name":"Atlanta Hartsfield-Jackson International Airport"},"airport2":{"country":"United States","iata":"TUS","icao":"KTUS","lat":32.116081,"lon":-110.941002,"name":"Tucson International Airport"}},{"airport1":{"country":"United States","iata":"ATL","icao":"KATL","lat":33.636719,"lon":-84.428001,"name":"Atlanta Hartsfield-Jackson International Airport"},"airport2":{"country":"United States","iata":"TYS","icao":"KTYS","lat":35.81097,"lon":-83.994003,"name":"Knoxville McGhee Tyson Airport"}},{"airport1":{"country":"United States","iata":"ATL","icao":"KATL","lat":33.636719,"lon":-84.428001,"name":"Atlanta Hartsfield-Jackson International Airport"},"airport2":{"country":"Ecuador","iata":"UIO","icao":"SEQM","lat":-0.1133,"lon":-78.358597,"name":"Quito Mariscal Sucre International Airport"}},{"airport1":{"country":"United States","iata":"ATL","icao":"KATL","lat":33.636719,"lon":-84.428001,"name":"Atlanta Hartsfield-Jackson International Airport"},"airport2":{"country":"Saint Lucia","iata":"UVF","icao":"TLPL","lat":13.73319,"lon":-60.952499,"name":"Vieux Fort Hewanorra International Airport"}},{"airport1":{"country":"United States","iata":"ATL","icao":"KATL","lat":33.636719,"lon":-84.428001,"name":"Atlanta Hartsfield-Jackson International Airport"},"airport2":{"country":"Italy","iata":"VCE","icao":"LIPZ","lat":45.505268,"lon":12.35194,"name":"Venice Marco Polo Airport"}},{"airport1":{"country":"United States","iata":"ATL","icao":"KATL","lat":33.636719,"lon":-84.428001,"name":"Atlanta Hartsfield-Jackson International Airport"},"airport2":{"country":"United States","iata":"VLD","icao":"KVLD","lat":30.780001,"lon":-83.269997,"name":"Valdosta Regional Airport"}},{"airport1":{"country":"United States","iata":"ATL","icao":"KATL","lat":33.636719,"lon":-84.428001,"name":"Atlanta Hartsfield-Jackson International Airport"},"airport2":{"country":"United States","iata":"VPS","icao":"KVPS","lat":30.48333,"lon":-86.525299,"name":"Destin Fort Walton Beach International Airport"}},{"airport1":{"country":"United States","iata":"ATL","icao":"KATL","lat":33.636719,"lon":-84.428001,"name":"Atlanta Hartsfield-Jackson International Airport"},"airport2":{"country":"United States","iata":"VQQ","icao":"KVQQ","lat":30.218679,"lon":-81.876602,"name":"Jacksonville Cecil Airport"}},{"airport1":{"country":"United States","iata":"ATL","icao":"KATL","lat":33.636719,"lon":-84.428001,"name":"Atlanta Hartsfield-Jackson International Airport"},"airport2":{"country":"United States","iata":"XNA","icao":"KXNA","lat":36.28186,"lon":-94.306801,"name":"Bentonville Northwest Arkansas National Airport"}},{"airport1":{"country":"United States","iata":"ATL","icao":"KATL","lat":33.636719,"lon":-84.428001,"name":"Atlanta Hartsfield-Jackson International Airport"},"airport2":{"country":"Canada","iata":"YUL","icao":"CYUL","lat":45.470551,"lon":-73.740799,"name":"Montreal Pierre Elliott Trudeau Airport"}},{"airport1":{"country":"United States","iata":"ATL","icao":"KATL","lat":33.636719,"lon":-84.428001,"name":"Atlanta Hartsfield-Jackson International Airport"},"airport2":{"country":"Canada","iata":"YYZ","icao":"CYYZ","lat":43.680634,"lon":-79.627007,"name":"Toronto Pearson International Airport"}},{"airport1":{"country":"United States","iata":"ATL","icao":"KATL","lat":33.636719,"lon":-84.428001,"name":"Atlanta Hartsfield-Jackson International Airport"},"airport2":{"country":"Switzerland","iata":"ZRH","icao":"LSZH","lat":47.464722,"lon":8.549167,"name":"Zurich Airport"}},{"airport1":{"country":"United States","iata":"ATW","icao":"KATW","lat":44.258091,"lon":-88.518997,"name":"Appleton International Airport"},"airport2":{"country":"United States","iata":"ATL","icao":"KATL","lat":33.636719,"lon":-84.428001,"name":"Atlanta Hartsfield-Jackson International Airport"}},{"airport1":{"country":"United States","iata":"ATW","icao":"KATW","lat":44.258091,"lon":-88.518997,"name":"Appleton International Airport"},"airport2":{"country":"United States","iata":"DTW","icao":"KDTW","lat":42.21244,"lon":-83.353302,"name":"Detroit Metropolitan Wayne County Airport"}},{"airport1":{"country":"United States","iata":"ATW","icao":"KATW","lat":44.258091,"lon":-88.518997,"name":"Appleton International Airport"},"airport2":{"country":"United States","iata":"MSP","icao":"KMSP","lat":44.88195,"lon":-93.221703,"name":"Minneapolis Saint Paul International Airport"}},{"airport1":{"country":"Aruba","iata":"AUA","icao":"TNCA","lat":12.50138,"lon":-70.015198,"name":"Oranjestad Queen Beatrix International Airport"},"airport2":{"country":"United States","iata":"ATL","icao":"KATL","lat":33.636719,"lon":-84.428001,"name":"Atlanta Hartsfield-Jackson International Airport"}},{"airport1":{"country":"Aruba","iata":"AUA","icao":"TNCA","lat":12.50138,"lon":-70.015198,"name":"Oranjestad Queen Beatrix International Airport"},"airport2":{"country":"United States","iata":"JFK","icao":"KJFK","lat":40.639751,"lon":-73.7789,"name":"New York John F. Kennedy International Airport"}},{"airport1":{"country":"United States","iata":"AUS","icao":"KAUS","lat":30.194521,"lon":-97.6698,"name":"Austin Bergstrom International Airport"},"airport2":{"country":"United States","iata":"ATL","icao":"KATL","lat":33.636719,"lon":-84.428001,"name":"Atlanta Hartsfield-Jackson International Airport"}},{"airport1":{"country":"United States","iata":"AUS","icao":"KAUS","lat":30.194521,"lon":-97.6698,"name":"Austin Bergstrom International Airport"},"airport2":{"country":"United States","iata":"BNA","icao":"KBNA","lat":36.12447,"lon":-86.678101,"name":"Nashville International Airport"}},{"airport1":{"country":"United States","iata":"AUS","icao":"KAUS","lat":30.194521,"lon":-97.6698,"name":"Austin Bergstrom International Airport"},"airport2":{"country":"United States","iata":"BOS","icao":"KBOS","lat":42.362968,"lon":-71.006401,"name":"Boston Logan International Airport"}},{"airport1":{"country":"United States","iata":"AUS","icao":"KAUS","lat":30.194521,"lon":-97.6698,"name":"Austin Bergstrom International Airport"},"airport2":{"country":"United States","iata":"CVG","icao":"KCVG","lat":39.048828,"lon":-84.667801,"name":"Cincinnati Northern Kentucky International Airport"}},{"airport1":{"country":"United States","iata":"AUS","icao":"KAUS","lat":30.194521,"lon":-97.6698,"name":"Austin Bergstrom International Airport"},"airport2":{"country":"United States","iata":"DTW","icao":"KDTW","lat":42.21244,"lon":-83.353302,"name":"Detroit Metropolitan Wayne County Airport"}},{"airport1":{"country":"United States","iata":"AUS","icao":"KAUS","lat":30.194521,"lon":-97.6698,"name":"Austin Bergstrom International Airport"},"airport2":{"country":"United States","iata":"ECP","icao":"KECP","lat":30.35,"lon":-85.790001,"name":"Panama City International Airport"}},{"airport1":{"country":"United States","iata":"AUS","icao":"KAUS","lat":30.194521,"lon":-97.6698,"name":"Austin Bergstrom International Airport"},"airport2":{"country":"United States","iata":"HRL","icao":"KHRL","lat":26.2285,"lon":-97.654297,"name":"Harlingen Valley International Airport"}},{"airport1":{"country":"United States","iata":"AUS","icao":"KAUS","lat":30.194521,"lon":-97.6698,"name":"Austin Bergstrom International Airport"},"airport2":{"country":"United States","iata":"IND","icao":"KIND","lat":39.717289,"lon":-86.294601,"name":"Indianapolis International Airport"}},{"airport1":{"country":"United States","iata":"AUS","icao":"KAUS","lat":30.194521,"lon":-97.6698,"name":"Austin Bergstrom International Airport"},"airport2":{"country":"United States","iata":"JAX","icao":"KJAX","lat":30.494049,"lon":-81.687798,"name":"Jacksonville International Airport"}},{"airport1":{"country":"United States","iata":"AUS","icao":"KAUS","lat":30.194521,"lon":-97.6698,"name":"Austin Bergstrom International Airport"},"airport2":{"country":"United States","iata":"JFK","icao":"KJFK","lat":40.639751,"lon":-73.7789,"name":"New York John F. Kennedy International Airport"}},{"airport1":{"country":"United States","iata":"AUS","icao":"KAUS","lat":30.194521,"lon":-97.6698,"name":"Austin Bergstrom International Airport"},"airport2":{"country":"United States","iata":"LAS","icao":"KLAS","lat":36.080051,"lon":-115.152,"name":"Las Vegas Harry Reid International Airport"}},{"airport1":{"country":"United States","iata":"AUS","icao":"KAUS","lat":30.194521,"lon":-97.6698,"name":"Austin Bergstrom International Airport"},"airport2":{"country":"United States","iata":"LAX","icao":"KLAX","lat":33.94252,"lon":-118.406998,"name":"Los Angeles International Airport"}},{"airport1":{"country":"United States","iata":"AUS","icao":"KAUS","lat":30.194521,"lon":-97.6698,"name":"Austin Bergstrom International Airport"},"airport2":{"country":"United States","iata":"MAF","icao":"KMAF","lat":31.94252,"lon":-102.200996,"name":"Midland International Airport"}},{"airport1":{"country":"United States","iata":"AUS","icao":"KAUS","lat":30.194521,"lon":-97.6698,"name":"Austin Bergstrom International Airport"},"airport2":{"country":"United States","iata":"MCO","icao":"KMCO","lat":28.42939,"lon":-81.308899,"name":"Orlando International Airport"}},{"airport1":{"country":"United States","iata":"AUS","icao":"KAUS","lat":30.194521,"lon":-97.6698,"name":"Austin Bergstrom International Airport"},"airport2":{"country":"United States","iata":"MEM","icao":"KMEM","lat":35.042412,"lon":-89.976601,"name":"Memphis International Airport"}},{"airport1":{"country":"United States","iata":"AUS","icao":"KAUS","lat":30.194521,"lon":-97.6698,"name":"Austin Bergstrom International Airport"},"airport2":{"country":"United States","iata":"MFE","icao":"KMFE","lat":26.175831,"lon":-98.238602,"name":"McAllen Miller International Airport"}},{"airport1":{"country":"United States","iata":"AUS","icao":"KAUS","lat":30.194521,"lon":-97.6698,"name":"Austin Bergstrom International Airport"},"airport2":{"country":"United States","iata":"MSP","icao":"KMSP","lat":44.88195,"lon":-93.221703,"name":"Minneapolis Saint Paul International Airport"}},{"airport1":{"country":"United States","iata":"AUS","icao":"KAUS","lat":30.194521,"lon":-97.6698,"name":"Austin Bergstrom International Airport"},"airport2":{"country":"United States","iata":"MSY","icao":"KMSY","lat":29.99338,"lon":-90.258003,"name":"New Orleans Louis Armstrong International Airport"}},{"airport1":{"country":"United States","iata":"AUS","icao":"KAUS","lat":30.194521,"lon":-97.6698,"name":"Austin Bergstrom International Airport"},"airport2":{"country":"United States","iata":"RDU","icao":"KRDU","lat":35.877628,"lon":-78.787399,"name":"Raleigh-Durham International Airport"}},{"airport1":{"country":"United States","iata":"AUS","icao":"KAUS","lat":30.194521,"lon":-97.6698,"name":"Austin Bergstrom International Airport"},"airport2":{"country":"United States","iata":"SEA","icao":"KSEA","lat":47.4482,"lon":-122.311203,"name":"Seattle Tacoma International Airport"}},{"airport1":{"country":"United States","iata":"AUS","icao":"KAUS","lat":30.194521,"lon":-97.6698,"name":"Austin Bergstrom International Airport"},"airport2":{"country":"United States","iata":"SLC","icao":"KSLC","lat":40.78838,"lon":-111.976997,"name":"Salt Lake City International Airport"}},{"airport1":{"country":"United States","iata":"AVL","icao":"KAVL","lat":35.436192,"lon":-82.541801,"name":"Asheville Regional Airport"},"airport2":{"country":"United States","iata":"ATL","icao":"KATL","lat":33.636719,"lon":-84.428001,"name":"Atlanta Hartsfield-Jackson International Airport"}},{"airport1":{"country":"United States","iata":"AVL","icao":"KAVL","lat":35.436192,"lon":-82.541801,"name":"Asheville Regional Airport"},"airport2":{"country":"United States","iata":"BOS","icao":"KBOS","lat":42.362968,"lon":-71.006401,"name":"Boston Logan International Airport"}},{"airport1":{"country":"United States","iata":"AVL","icao":"KAVL","lat":35.436192,"lon":-82.541801,"name":"Asheville Regional Airport"},"airport2":{"country":"United States","iata":"LGA","icao":"KLGA","lat":40.777248,"lon":-73.872597,"name":"New York LaGuardia Airport"}},{"airport1":{"country":"United States","iata":"AZO","icao":"KAZO","lat":42.23,"lon":-85.550003,"name":"Kalamazoo Battle Creek International Airport"},"airport2":{"country":"United States","iata":"DTW","icao":"KDTW","lat":42.21244,"lon":-83.353302,"name":"Detroit Metropolitan Wayne County Airport"}},{"airport1":{"country":"Spain","iata":"BCN","icao":"LEBL","lat":41.29707,"lon":2.078463,"name":"Barcelona El Prat Airport"},"airport2":{"country":"United States","iata":"ATL","icao":"KATL","lat":33.636719,"lon":-84.428001,"name":"Atlanta Hartsfield-Jackson International Airport"}},{"airport1":{"country":"Spain","iata":"BCN","icao":"LEBL","lat":41.29707,"lon":2.078463,"name":"Barcelona El Prat Airport"},"airport2":{"country":"United States","iata":"JFK","icao":"KJFK","lat":40.639751,"lon":-73.7789,"name":"New York John F. Kennedy International Airport"}},{"airport1":{"country":"Bermuda","iata":"BDA","icao":"TXKF","lat":32.36404,"lon":-64.678703,"name":"Bermuda L.F. Wade International Airport"},"airport2":{"country":"United States","iata":"ATL","icao":"KATL","lat":33.636719,"lon":-84.428001,"name":"Atlanta Hartsfield-Jackson International Airport"}},{"airport1":{"country":"Bermuda","iata":"BDA","icao":"TXKF","lat":32.36404,"lon":-64.678703,"name":"Bermuda L.F. Wade International Airport"},"airport2":{"country":"United States","iata":"JFK","icao":"KJFK","lat":40.639751,"lon":-73.7789,"name":"New York John F. Kennedy International Airport"}},{"airport1":{"country":"United States","iata":"BDL","icao":"KBDL","lat":41.938595,"lon":-72.687958,"name":"Windsor Locks Bradley International Airport"},"airport2":{"country":"United States","iata":"ATL","icao":"KATL","lat":33.636719,"lon":-84.428001,"name":"Atlanta Hartsfield-Jackson International Airport"}},{"airport1":{"country":"United States","iata":"BDL","icao":"KBDL","lat":41.938595,"lon":-72.687958,"name":"Windsor Locks Bradley International Airport"},"airport2":{"country":"United States","iata":"DTW","icao":"KDTW","lat":42.21244,"lon":-83.353302,"name":"Detroit Metropolitan Wayne County Airport"}},{"airport1":{"country":"United States","iata":"BDL","icao":"KBDL","lat":41.938595,"lon":-72.687958,"name":"Windsor Locks Bradley International Airport"},"airport2":{"country":"United States","iata":"MSP","icao":"KMSP","lat":44.88195,"lon":-93.221703,"name":"Minneapolis Saint Paul International Airport"}},{"airport1":{"country":"Germany","iata":"BER","icao":"EDDB","lat":52.362877,"lon":13.503722,"name":"Berlin Brandenburg Airport"},"airport2":{"country":"United States","iata":"JFK","icao":"KJFK","lat":40.639751,"lon":-73.7789,"name":"New York John F. Kennedy International Airport"}},{"airport1":{"country":"Barbados","iata":"BGI","icao":"TBPB","lat":13.0746,"lon":-59.492401,"name":"Bridgetown Grantley Adams International Airport"},"airport2":{"country":"United States","iata":"ATL","icao":"KATL","lat":33.636719,"lon":-84.428001,"name":"Atlanta Hartsfield-Jackson International Airport"}},{"airport1":{"country":"United States","iata":"BGM","icao":"KBGM","lat":42.208611,"lon":-75.979698,"name":"Greater Binghamton Airport"},"airport2":{"country":"United States","iata":"DTW","icao":"KDTW","lat":42.21244,"lon":-83.353302,"name":"Detroit Metropolitan Wayne County Airport"}},{"airport1":{"country":"United States","iata":"BGR","icao":"KBGR","lat":44.807442,"lon":-68.828102,"name":"Bangor International Airport"},"airport2":{"country":"United States","iata":"JFK","icao":"KJFK","lat":40.639751,"lon":-73.7789,"name":"New York John F. Kennedy International Airport"}},{"airport1":{"country":"United States","iata":"BGR","icao":"KBGR","lat":44.807442,"lon":-68.828102,"name":"Bangor International Airport"},"airport2":{"country":"United States","iata":"LGA","icao":"KLGA","lat":40.777248,"lon":-73.872597,"name":"New York LaGuardia Airport"}},{"airport1":{"country":"United States","iata":"BHM","icao":"KBHM","lat":33.563629,"lon":-86.756027,"name":"Birmingham Shuttlesworth International Airport"},"airport2":{"country":"United States","iata":"ATL","icao":"KATL","lat":33.636719,"lon":-84.428001,"name":"Atlanta Hartsfield-Jackson International Airport"}},{"airport1":{"country":"United States","iata":"BHM","icao":"KBHM","lat":33.563629,"lon":-86.756027,"name":"Birmingham Shuttlesworth International Airport"},"airport2":{"country":"United States","iata":"DTW","icao":"KDTW","lat":42.21244,"lon":-83.353302,"name":"Detroit Metropolitan Wayne County Airport"}},{"airport1":{"country":"United States","iata":"BHM","icao":"KBHM","lat":33.563629,"lon":-86.756027,"name":"Birmingham Shuttlesworth International Airport"},"airport2":{"country":"United States","iata":"LGA","icao":"KLGA","lat":40.777248,"lon":-73.872597,"name":"New York LaGuardia Airport"}},{"airport1":{"country":"United States","iata":"BHM","icao":"KBHM","lat":33.563629,"lon":-86.756027,"name":"Birmingham Shuttlesworth International Airport"},"airport2":{"country":"Mexico","iata":"QRO","icao":"MMQT","lat":20.617279,"lon":-100.184998,"name":"Queretaro International Airport"}},{"airport1":{"country":"United States","iata":"BIL","icao":"KBIL","lat":45.808586,"lon":-108.539894,"name":"Billings Logan International Airport"},"airport2":{"country":"United States","iata":"MSP","icao":"KMSP","lat":44.88195,"lon":-93.221703,"name":"Minneapolis Saint Paul International Airport"}},{"airport1":{"country":"United States","iata":"BIL","icao":"KBIL","lat":45.808586,"lon":-108.539894,"name":"Billings Logan International Airport"},"airport2":{"country":"United States","iata":"SLC","icao":"KSLC","lat":40.78838,"lon":-111.976997,"name":"Salt Lake City International Airport"}},{"airport1":{"country":"United States","iata":"BIS","icao":"KBIS","lat":46.774479,"lon":-100.758209,"name":"Bismarck Municipal Airport"},"airport2":{"country":"United States","iata":"MSP","icao":"KMSP","lat":44.88195,"lon":-93.221703,"name":"Minneapolis Saint Paul International Airport"}},{"airport1":{"country":"United States","iata":"BJI","icao":"KBJI","lat":47.509998,"lon":-94.93,"name":"Bemidji Regional Airport"},"airport2":{"country":"United States","iata":"MSP","icao":"KMSP","lat":44.88195,"lon":-93.221703,"name":"Minneapolis Saint Paul International Airport"}},{"airport1":{"country":"United States","iata":"BMI","icao":"KBMI","lat":40.477112,"lon":-88.915901,"name":"Bloomington Central Illinois Regional Airport"},"airport2":{"country":"United States","iata":"ATL","icao":"KATL","lat":33.636719,"lon":-84.428001,"name":"Atlanta Hartsfield-Jackson International Airport"}},{"airport1":{"country":"United States","iata":"BNA","icao":"KBNA","lat":36.12447,"lon":-86.678101,"name":"Nashville International Airport"},"airport2":{"country":"United States","iata":"ATL","icao":"KATL","lat":33.636719,"lon":-84.428001,"name":"Atlanta Hartsfield-Jackson International Airport"}},{"airport1":{"country":"United States","iata":"BNA","icao":"KBNA","lat":36.12447,"lon":-86.678101,"name":"Nashville International Airport"},"airport2":{"country":"United States","iata":"AUS","icao":"KAUS","lat":30.194521,"lon":-97.6698,"name":"Austin Bergstrom International Airport"}},{"airport1":{"country":"United States","iata":"BNA","icao":"KBNA","lat":36.12447,"lon":-86.678101,"name":"Nashville International Airport"},"airport2":{"country":"United States","iata":"BOS","icao":"KBOS","lat":42.362968,"lon":-71.006401,"name":"Boston Logan International Airport"}},{"airport1":{"country":"United States","iata":"BNA","icao":"KBNA","lat":36.12447,"lon":-86.678101,"name":"Nashville International Airport"},"airport2":{"country":"United States","iata":"DCA","icao":"KDCA","lat":38.852081,"lon":-77.037697,"name":"Washington Ronald Reagan National Airport"}},{"airport1":{"country":"United States","iata":"BNA","icao":"KBNA","lat":36.12447,"lon":-86.678101,"name":"Nashville International Airport"},"airport2":{"country":"United States","iata":"DTW","icao":"KDTW","lat":42.21244,"lon":-83.353302,"name":"Detroit Metropolitan Wayne County Airport"}},{"airport1":{"country":"United States","iata":"BNA","icao":"KBNA","lat":36.12447,"lon":-86.678101,"name":"Nashville International Airport"},"airport2":{"country":"United States","iata":"JFK","icao":"KJFK","lat":40.639751,"lon":-73.7789,"name":"New York John F. Kennedy International Airport"}},{"airport1":{"country":"United States","iata":"BNA","icao":"KBNA","lat":36.12447,"lon":-86.678101,"name":"Nashville International Airport"},"airport2":{"country":"United States","iata":"LAX","icao":"KLAX","lat":33.94252,"lon":-118.406998,"name":"Los Angeles International Airport"}},{"airport1":{"country":"United States","iata":"BNA","icao":"KBNA","lat":36.12447,"lon":-86.678101,"name":"Nashville International Airport"},"airport2":{"country":"United States","iata":"LGA","icao":"KLGA","lat":40.777248,"lon":-73.872597,"name":"New York LaGuardia Airport"}},{"airport1":{"country":"United States","iata":"BNA","icao":"KBNA","lat":36.12447,"lon":-86.678101,"name":"Nashville International Airport"},"airport2":{"country":"United States","iata":"MSP","icao":"KMSP","lat":44.88195,"lon":-93.221703,"name":"Minneapolis Saint Paul International Airport"}},{"airport1":{"country":"United States","iata":"BNA","icao":"KBNA","lat":36.12447,"lon":-86.678101,"name":"Nashville International Airport"},"airport2":{"country":"United States","iata":"RDU","icao":"KRDU","lat":35.877628,"lon":-78.787399,"name":"Raleigh-Durham International Airport"}},{"airport1":{"country":"United States","iata":"BNA","icao":"KBNA","lat":36.12447,"lon":-86.678101,"name":"Nashville International Airport"},"airport2":{"country":"United States","iata":"SEA","icao":"KSEA","lat":47.4482,"lon":-122.311203,"name":"Seattle Tacoma International Airport"}},{"airport1":{"country":"United States","iata":"BNA","icao":"KBNA","lat":36.12447,"lon":-86.678101,"name":"Nashville International Airport"},"airport2":{"country":"United States","iata":"SLC","icao":"KSLC","lat":40.78838,"lon":-111.976997,"name":"Salt Lake City International Airport"}},{"airport1":{"country":"Colombia","iata":"BOG","icao":"SKBO","lat":4.703056,"lon":-74.138298,"name":"Bogota El Dorado International Airport"},"airport2":{"country":"United States","iata":"ATL","icao":"KATL","lat":33.636719,"lon":-84.428001,"name":"Atlanta Hartsfield-Jackson International Airport"}},{"airport1":{"country":"United States","iata":"BOI","icao":"KBOI","lat":43.564362,"lon":-116.222,"name":"Boise Airport"},"airport2":{"country":"United States","iata":"ATL","icao":"KATL","lat":33.636719,"lon":-84.428001,"name":"Atlanta Hartsfield-Jackson International Airport"}},{"airport1":{"country":"United States","iata":"BOI","icao":"KBOI","lat":43.564362,"lon":-116.222,"name":"Boise Airport"},"airport2":{"country":"United States","iata":"LAX","icao":"KLAX","lat":33.94252,"lon":-118.406998,"name":"Los Angeles International Airport"}},{"airport1":{"country":"United States","iata":"BOI","icao":"KBOI","lat":43.564362,"lon":-116.222,"name":"Boise Airport"},"airport2":{"country":"United States","iata":"MSP","icao":"KMSP","lat":44.88195,"lon":-93.221703,"name":"Minneapolis Saint Paul International Airport"}},{"airport1":{"country":"United States","iata":"BOI","icao":"KBOI","lat":43.564362,"lon":-116.222,"name":"Boise Airport"},"airport2":{"country":"United States","iata":"SEA","icao":"KSEA","lat":47.4482,"lon":-122.311203,"name":"Seattle Tacoma International Airport"}},{"airport1":{"country":"United States","iata":"BOI","icao":"KBOI","lat":43.564362,"lon":-116.222,"name":"Boise Airport"},"airport2":{"country":"United States","iata":"SLC","icao":"KSLC","lat":40.78838,"lon":-111.976997,"name":"Salt Lake City International Airport"}},{"airport1":{"country":"Netherlands","iata":"BON","icao":"TNCB","lat":12.13104,"lon":-68.268501,"name":"Bonaire Flamingo International Airport"},"airport2":{"country":"United States","iata":"ATL","icao":"KATL","lat":33.636719,"lon":-84.428001,"name":"Atlanta Hartsfield-Jackson International Airport"}},{"airport1":{"country":"United States","iata":"BOS","icao":"KBOS","lat":42.362968,"lon":-71.006401,"name":"Boston Logan International Airport"},"airport2":{"country":"Netherlands","iata":"AMS","icao":"EHAM","lat":52.308609,"lon":4.763889,"name":"Amsterdam Schiphol Airport"}},{"airport1":{"country":"United States","iata":"BOS","icao":"KBOS","lat":42.362968,"lon":-71.006401,"name":"Boston Logan International Airport"},"airport2":{"country":"Greece","iata":"ATH","icao":"LGAV","lat":37.936352,"lon":23.94446,"name":"Athens Eleftherios Venizelos"}},{"airport1":{"country":"United States","iata":"BOS","icao":"KBOS","lat":42.362968,"lon":-71.006401,"name":"Boston Logan International Airport"},"airport2":{"country":"United States","iata":"ATL","icao":"KATL","lat":33.636719,"lon":-84.428001,"name":"Atlanta Hartsfield-Jackson International Airport"}},{"airport1":{"country":"United States","iata":"BOS","icao":"KBOS","lat":42.362968,"lon":-71.006401,"name":"Boston Logan International Airport"},"airport2":{"country":"United States","iata":"AUS","icao":"KAUS","lat":30.194521,"lon":-97.6698,"name":"Austin Bergstrom International Airport"}},{"airport1":{"country":"United States","iata":"BOS","icao":"KBOS","lat":42.362968,"lon":-71.006401,"name":"Boston Logan International Airport"},"airport2":{"country":"United States","iata":"AVL","icao":"KAVL","lat":35.436192,"lon":-82.541801,"name":"Asheville Regional Airport"}},{"airport1":{"country":"United States","iata":"BOS","icao":"KBOS","lat":42.362968,"lon":-71.006401,"name":"Boston Logan International Airport"},"airport2":{"country":"United States","iata":"BNA","icao":"KBNA","lat":36.12447,"lon":-86.678101,"name":"Nashville International Airport"}},{"airport1":{"country":"United States","iata":"BOS","icao":"KBOS","lat":42.362968,"lon":-71.006401,"name":"Boston Logan International Airport"},"airport2":{"country":"United States","iata":"BWI","icao":"KBWI","lat":39.175362,"lon":-76.668297,"name":"Baltimore Washington International Airport"}},{"airport1":{"country":"United States","iata":"BOS","icao":"KBOS","lat":42.362968,"lon":-71.006401,"name":"Boston Logan International Airport"},"airport2":{"country":"France","iata":"CDG","icao":"LFPG","lat":49.012516,"lon":2.555752,"name":"Paris Charles de Gaulle Airport"}},{"airport1":{"country":"United States","iata":"BOS","icao":"KBOS","lat":42.362968,"lon":-71.006401,"name":"Boston Logan International Airport"},"airport2":{"country":"United States","iata":"CHS","icao":"KCHS","lat":32.898628,"lon":-80.040497,"name":"Charleston International Airport"}},{"airport1":{"country":"United States","iata":"BOS","icao":"KBOS","lat":42.362968,"lon":-71.006401,"name":"Boston Logan International Airport"},"airport2":{"country":"United States","iata":"CLE","icao":"KCLE","lat":41.410252,"lon":-81.853897,"name":"Cleveland Hopkins International Airport"}},{"airport1":{"country":"United States","iata":"BOS","icao":"KBOS","lat":42.362968,"lon":-71.006401,"name":"Boston Logan International Airport"},"airport2":{"country":"United States","iata":"CLT","icao":"KCLT","lat":35.214001,"lon":-80.9431,"name":"Charlotte Douglas International Airport"}},{"airport1":{"country":"United States","iata":"BOS","icao":"KBOS","lat":42.362968,"lon":-71.006401,"name":"Boston Logan International Airport"},"airport2":{"country":"United States","iata":"CMH","icao":"KCMH","lat":39.997971,"lon":-82.8918,"name":"Columbus John Glenn International Airport"}},{"airport1":{"country":"United States","iata":"BOS","icao":"KBOS","lat":42.362968,"lon":-71.006401,"name":"Boston Logan International Airport"},"airport2":{"country":"Mexico","iata":"CUN","icao":"MMUN","lat":21.03652,"lon":-86.876999,"name":"Cancun International Airport"}},{"airport1":{"country":"United States","iata":"BOS","icao":"KBOS","lat":42.362968,"lon":-71.006401,"name":"Boston Logan International Airport"},"airport2":{"country":"United States","iata":"CVG","icao":"KCVG","lat":39.048828,"lon":-84.667801,"name":"Cincinnati Northern Kentucky International Airport"}},{"airport1":{"country":"United States","iata":"BOS","icao":"KBOS","lat":42.362968,"lon":-71.006401,"name":"Boston Logan International Airport"},"airport2":{"country":"United States","iata":"DCA","icao":"KDCA","lat":38.852081,"lon":-77.037697,"name":"Washington Ronald Reagan National Airport"}},{"airport1":{"country":"United States","iata":"BOS","icao":"KBOS","lat":42.362968,"lon":-71.006401,"name":"Boston Logan International Airport"},"airport2":{"country":"United States","iata":"DEN","icao":"KDEN","lat":39.858784,"lon":-104.673882,"name":"Denver International Airport"}},{"airport1":{"country":"United States","iata":"BOS","icao":"KBOS","lat":42.362968,"lon":-71.006401,"name":"Boston Logan International Airport"},"airport2":{"country":"United States","iata":"DFW","icao":"KDFW","lat":32.89682,"lon":-97.037903,"name":"Dallas Fort Worth International Airport"}},{"airport1":{"country":"United States","iata":"BOS","icao":"KBOS","lat":42.362968,"lon":-71.006401,"name":"Boston Logan International Airport"},"airport2":{"country":"United States","iata":"DTW","icao":"KDTW","lat":42.21244,"lon":-83.353302,"name":"Detroit Metropolitan Wayne County Airport"}},{"airport1":{"country":"United States","iata":"BOS","icao":"KBOS","lat":42.362968,"lon":-71.006401,"name":"Boston Logan International Airport"},"airport2":{"country":"Ireland","iata":"DUB","icao":"EIDW","lat":53.427849,"lon":-6.255323,"name":"Dublin Airport"}},{"airport1":{"country":"United States","iata":"BOS","icao":"KBOS","lat":42.362968,"lon":-71.006401,"name":"Boston Logan International Airport"},"airport2":{"country":"United Kingdom","iata":"EDI","icao":"EGPH","lat":55.950001,"lon":-3.3725,"name":"Edinburgh Airport"}},{"airport1":{"country":"United States","iata":"BOS","icao":"KBOS","lat":42.362968,"lon":-71.006401,"name":"Boston Logan International Airport"},"airport2":{"country":"United States","iata":"EWR","icao":"KEWR","lat":40.692501,"lon":-74.168602,"name":"New York Newark Liberty International Airport"}},{"airport1":{"country":"United States","iata":"BOS","icao":"KBOS","lat":42.362968,"lon":-71.006401,"name":"Boston Logan International Airport"},"airport2":{"country":"Italy","iata":"FCO","icao":"LIRF","lat":41.80447,"lon":12.25079,"name":"Rome Leonardo da Vinci Fiumicino Airport"}},